{
  "general": {
    "geoType": "us",
    "geoBorderColor": "darkGray",
    "headerColor": "theme-blue",
    "showTitle": true,
    "showSidebar": true,
    "showDownloadButton": true,
    "showDownloadMediaButton": false,
    "displayAsHex": false,
    "displayStateLabels": false,
    "territoriesLabel": "Territories",
    "language": "en",
    "hasRegions": false,
    "expandDataTable": true,
    "fullBorder": false,
    "type": "data",
    "title": "Default US Map",
    "territoriesAlwaysShow": false,
    "geoLabelOverride": "",
    "convertFipsCodes": true,
    "palette": {
      "isReversed": false
    },
    "allowMapZoom": true,
    "hideGeoColumnInTooltip": false,
    "hidePrimaryColumnInTooltip": false,
    "statePicked": {
      "fipsCode": "01",
      "stateName": "Alabama"
    }
  },
  "type": "map",
  "color": "qualitative4",
  "columns": {
    "geo": {
      "name": "State",
      "label": "Location",
      "tooltip": false,
      "dataTable": true
    },
    "primary": {
      "dataTable": true,
      "tooltip": true,
      "prefix": "",
      "suffix": "",
      "name": "Condition",
      "label": ""
    },
    "navigate": {
      "name": "Condition"
    },
    "latitude": {
      "name": ""
    },
    "longitude": {
      "name": ""
    }
  },
  "legend": {
    "descriptions": {},
    "specialClasses": [],
    "unified": false,
    "singleColumn": false,
    "dynamicDescription": false,
    "type": "category",
    "numberOfItems": 3,
    "position": "side",
    "title": "Legend",
    "singleRow": false,
    "verticalSorted": false,
    "showSpecialClassesLast": false,
    "categoryValuesOrder": ["Arboviral 2", "Arboviral 3", "Arboviral 4", "Arboviral 5", "Arboviral 6", "Arboviral 7", "Arboviral 8", "Arboviral 9", "Arboviral 10", "Arboviral 11", "Arboviral 12", "Arboviral", "Babesiosis", "Congenital Syphilis", "FDD", "Generic v2.0"]
  },
  "filters": [],
  "table": {
    "wrapColumns": false,
    "label": "Data Table",
    "expanded": false,
    "limitHeight": false,
    "height": "",
    "caption": "",
    "showDownloadUrl": false,
    "showDataTableLink": true,
    "showFullGeoNameInCSV": false,
    "forceDisplay": true,
    "download": false,
    "indexLabel": ""
  },
  "tooltips": {
    "appearanceType": "hover",
    "linkLabel": "Learn More",
    "capitalizeLabels": true,
    "opacity": 90
  },
  "runtime": {
    "editorErrorMessage": []
  },
  "visual": {
    "minBubbleSize": 1,
    "maxBubbleSize": 20,
    "extraBubbleBorder": false,
    "cityStyle": "pin",
    "geoCodeCircleSize": "4",
    "showBubbleZeros": false,
    "additionalCityStyles": [
      {
        "label": "Tampa Diamond",
        "column": "State",
        "value": "Tampa",
        "shape": "Diamond"
      },
      {
        "label": " Production Label",
        "column": "Status",
        "value": "Production",
        "shape": "Star"
      },
      {
        "label": "Onboarding label",
        "column": "Status",
        "value": "Onboarding",
        "shape": "Triangle"
      }
    ],
    "cityStyleLabel": "Default city shape"
  },
  "mapPosition": {
    "coordinates": [0, 30],
    "zoom": 1
  },
  "map": {
    "layers": [],
    "patterns": [
      {
        "dataKey": "State",
        "pattern": "circles",
        "dataValue": "GU"
      }
    ]
  },
  "hexMap": {
    "type": "",
    "shapeGroups": [
      {
        "legendTitle": "",
        "legendDescription": "",
        "items": [
          {
            "key": "",
            "shape": "Arrow up",
            "column": "",
            "operator": "=",
            "value": ""
          }
        ]
      }
    ]
  },
  "filterBehavior": "Filter Change",
  "data": [
    {
      "Condition": "Arboviral 2",
      "State": "Chicago",
      "Status": "Onboarding"
    },
    {
      "Condition": "Arboviral 7",
      "State": "Tampa",
      "Status": "Onboarding"
    },
    {
      "Condition": "Arboviral 9",
      "State": "Seatle",
      "Status": "Onboarding"
    },
    {
      "Condition": "Arboviral 9",
      "State": "Denver",
      "Status": "Onboarding"
    },
    {
      "Condition": "Arboviral 4",
      "State": "Dallas",
      "Status": "Production"
    },
    {
      "Condition": "Arboviral 4",
      "State": "Sacramento",
      "Status": "Production"
    },
    {
      "Condition": "Arboviral 3",
      "State": "Atlanta",
      "Status": "Production"
    },
    {
      "Condition": "Arboviral 9",
      "State": "Orlando",
      "Status": "Production"
    },
    {
      "Condition": "Arboviral 2",
      "State": "AL",
      "Status": "Production"
    },
    {
      "Condition": "Arboviral 3",
      "State": "AK",
      "Status": "Onboarding"
    },
    {
      "Condition": "Arboviral 4",
      "State": "AZ",
      "Status": "Production"
    },
    {
      "Condition": "Arboviral 5",
      "State": "AR",
      "Status": "Production"
    },
    {
      "Condition": "Arboviral 6",
      "State": "DE",
      "Status": "Production"
    },
    {
      "Condition": "Arboviral 7",
      "State": "FL",
      "Status": "Production"
    },
    {
      "Condition": "Arboviral 8",
      "State": "ID",
      "Status": "Production"
    },
    {
      "Condition": "Arboviral 9",
      "State": "IL",
      "Status": "Production"
    },
    {
      "Condition": "Arboviral 10",
      "State": "IN",
      "Status": "Production"
    },
    {
      "Condition": "Arboviral 11",
      "State": "KS",
      "Status": "Onboarding"
    },
    {
      "Condition": "Arboviral 12",
      "State": "LA",
      "Status": "Production"
    },
    {
      "Condition": "Arboviral",
      "State": "MD",
      "Status": "Production"
    },
    {
      "Condition": "Arboviral",
      "State": "MA",
      "Status": "Production"
    },
    {
      "Condition": "Arboviral",
      "State": "MI",
      "Status": "Onboarding"
    },
    {
      "Condition": "Arboviral",
      "State": "MS",
      "Status": "Production"
    },
    {
      "Condition": "Arboviral",
      "State": "MT",
      "Status": "Production"
    },
    {
      "Condition": "Arboviral",
      "State": "NE",
      "Status": "Production"
    },
    {
      "Condition": "Arboviral",
      "State": "NJ",
      "Status": "Production"
    },
    {
      "Condition": "Arboviral",
      "State": "NY",
      "Status": "Production"
    },
    {
      "Condition": "Arboviral",
      "State": "ND",
      "Status": "Production"
    },
    {
      "Condition": "Arboviral",
      "State": "OR",
      "Status": "Production"
    },
    {
      "Condition": "Arboviral",
      "State": "PA",
      "Status": "Production"
    },
    {
      "Condition": "Arboviral",
      "State": "RI",
      "Status": "Production"
    },
    {
      "Condition": "Arboviral",
      "State": "SC",
      "Status": "Onboarding"
    },
    {
      "Condition": "Arboviral",
      "State": "SD",
      "Status": "Production"
    },
    {
      "Condition": "Arboviral",
      "State": "TN",
      "Status": "Production"
    },
    {
      "Condition": "Arboviral",
      "State": "TX",
      "Status": "Production"
    },
    {
      "Condition": "Arboviral",
      "State": "UT",
      "Status": "Production"
    },
    {
      "Condition": "Arboviral",
      "State": "VA",
      "Status": "Production"
    },
    {
      "Condition": "Arboviral",
      "State": "WA",
      "Status": "Onboarding"
    },
    {
      "Condition": "Arboviral",
      "State": "WI",
      "Status": "Production"
    },
    {
      "Condition": "Arboviral",
      "State": "WY",
      "Status": "Production"
    },
    {
      "Condition": "Arboviral 5",
      "State": "New York City",
      "Status": "Production"
    },
    {
      "Condition": "Babesiosis",
      "State": "CT",
      "Status": "Piloting"
    },
    {
      "Condition": "Babesiosis",
      "State": "FL",
      "Status": "Piloting"
    },
    {
      "Condition": "Babesiosis",
      "State": "ID",
      "Status": "Onboarding"
    },
    {
      "Condition": "Babesiosis",
      "State": "MI",
      "Status": "Production"
    },
    {
      "Condition": "Babesiosis",
      "State": "WI",
      "Status": "Production"
    },
    {
      "Condition": "Congenital Syphilis",
      "State": "AL",
      "Status": "Production"
    },
    {
      "Condition": "Congenital Syphilis",
      "State": "CT",
      "Status": "Production"
    },
    {
      "Condition": "Congenital Syphilis",
      "State": "ID",
      "Status": "Production"
    },
    {
      "Condition": "Congenital Syphilis",
      "State": "IN",
      "Status": "Onboarding"
    },
    {
      "Condition": "Congenital Syphilis",
      "State": "KY",
      "Status": "Production"
    },
    {
      "Condition": "Congenital Syphilis",
      "State": "MI",
      "Status": "Production"
    },
    {
      "Condition": "Congenital Syphilis",
      "State": "NC",
      "Status": "Production"
    },
    {
      "Condition": "Congenital Syphilis",
      "State": "OR",
      "Status": "Production"
    },
    {
      "Condition": "Congenital Syphilis",
      "State": "SC",
      "Status": "Production"
    },
    {
      "Condition": "Congenital Syphilis",
      "State": "WI",
      "Status": "Production"
    },
    {
      "Condition": "COVID-19",
      "State": "AK",
      "Status": "Onboarding"
    },
    {
      "Condition": "COVID-19",
      "State": "ID",
      "Status": "Production"
    },
    {
      "Condition": "COVID-19",
      "State": "KS",
      "Status": "Production"
    },
    {
      "Condition": "COVID-19",
      "State": "KY",
      "Status": "Onboarding"
    },
    {
      "Condition": "COVID-19",
      "State": "UT",
      "Status": "Production"
    },
    {
      "Condition": "CRS",
      "State": "OR",
      "Status": "Piloting"
    },
    {
      "Condition": "FDD",
      "State": "FL",
      "Status": "Piloting"
    },
    {
      "Condition": "FDD",
      "State": "MI",
      "Status": "Onboarding"
    },
    {
      "Condition": "FDD",
      "State": "MN",
      "Status": "Piloting"
    },
    {
      "Condition": "FDD",
      "State": "NY",
      "Status": "Piloting"
    },
    {
      "Condition": "FDD",
      "State": "OR",
      "Status": "Production"
    },
    {
      "Condition": "Generic v2.0",
      "State": "AL",
      "Status": "Production"
    },
    {
      "Condition": "Generic v2.0",
      "State": "AK",
      "Status": "Production"
    },
    {
      "Condition": "Generic v2.0",
      "State": "AZ",
      "Status": "Production"
    },
    {
      "Condition": "Generic v2.0",
      "State": "CA",
      "Status": "Production"
    },
    {
      "Condition": "Generic v2.0",
      "State": "CO",
      "Status": "Production"
    },
    {
      "Condition": "Generic v2.0",
      "State": "CT",
      "Status": "Production"
    },
    {
      "Condition": "Generic v2.0",
      "State": "DE",
      "Status": "Production"
    },
    {
      "Condition": "Generic v2.0",
      "State": "FL",
      "Status": "Production"
    },
    {
      "Condition": "Generic v2.0",
      "State": "GA",
      "Status": "Production"
    },
    {
      "Condition": "Generic v2.0",
      "State": "ID",
      "Status": "Production"
    },
    {
      "Condition": "Generic v2.0",
      "State": "IL",
      "Status": "Production"
    },
    {
      "Condition": "Generic v2.0",
      "State": "IN",
      "Status": "Production"
    },
    {
      "Condition": "Generic v2.0",
      "State": "IA",
      "Status": "Production"
    },
    {
      "Condition": "Generic v2.0",
      "State": "KS",
      "Status": "Production"
    },
    {
      "Condition": "Generic v2.0",
      "State": "KY",
      "Status": "Production"
    },
    {
      "Condition": "Generic v2.0",
      "State": "ME",
      "Status": "Production"
    },
    {
      "Condition": "Generic v2.0",
      "State": "MA",
      "Status": "Production"
    },
    {
      "Condition": "Generic v2.0",
      "State": "MI",
      "Status": "Production"
    },
    {
      "Condition": "Generic v2.0",
      "State": "MN",
      "Status": "Production"
    },
    {
      "Condition": "Generic v2.0",
      "State": "MS",
      "Status": "Production"
    },
    {
      "Condition": "Generic v2.0",
      "State": "MT",
      "Status": "Production"
    },
    {
      "Condition": "Generic v2.0",
      "State": "NH",
      "Status": "Onboarding"
    },
    {
      "Condition": "Generic v2.0",
      "State": "NJ",
      "Status": "Production"
    },
    {
      "Condition": "Generic v2.0",
      "State": "NY",
      "Status": "Production"
    },
    {
      "Condition": "Generic v2.0",
      "State": "NC",
      "Status": "Production"
    },
    {
      "Condition": "Generic v2.0",
      "State": "OR",
      "Status": "Production"
    },
    {
      "Condition": "Generic v2.0",
      "State": "PA",
      "Status": "Production"
    },
    {
      "Condition": "Generic v2.0",
      "State": "RI",
      "Status": "Production"
    },
    {
      "Condition": "Generic v2.0",
      "State": "SC",
      "Status": "Production"
    },
    {
      "Condition": "Generic v2.0",
      "State": "TN",
      "Status": "Production"
    },
    {
      "Condition": "Generic v2.0",
      "State": "UT",
      "Status": "Production"
    },
    {
      "Condition": "Generic v2.0",
      "State": "VA",
      "Status": "Production"
    },
    {
      "Condition": "Generic v2.0",
      "State": "WV",
      "Status": "Onboarding"
    },
    {
      "Condition": "Generic v2.0",
      "State": "WI",
      "Status": "Production"
    },
    {
      "Condition": "Generic v2.0",
      "State": "WY",
      "Status": "Onboarding"
    },
    {
      "Condition": "Generic v2.0",
      "State": "New York City",
      "Status": "Production"
    },
    {
      "Condition": "Generic v2.0",
      "State": "CNMI",
      "Status": "Onboarding"
    },
    {
      "Condition": "Generic v2.0",
      "State": "GU",
      "Status": "Production"
    },
    {
      "Condition": "Generic v2.0",
      "State": "PR",
      "Status": "Production"
    },
    {
      "Condition": "Generic v2.0",
      "State": "VI",
      "Status": "Onboarding"
    },
    {
      "Condition": "HAI MDRO",
      "State": "CO",
      "Status": "Onboarding"
    },
    {
      "Condition": "HAI MDRO",
      "State": "MI",
      "Status": "Production"
    },
    {
      "Condition": "HAI MDRO",
      "State": "OR",
      "Status": "Piloting"
    },
    {
      "Condition": "Hepatitis",
      "State": "AL",
      "Status": "Production"
    },
    {
      "Condition": "Hepatitis",
      "State": "AK",
      "Status": "Production"
    },
    {
      "Condition": "Hepatitis",
      "State": "CO",
      "Status": "Production"
    },
    {
      "Condition": "Hepatitis",
      "State": "DE",
      "Status": "Production"
    },
    {
      "Condition": "Hepatitis",
      "State": "FL",
      "Status": "Production"
    },
    {
      "Condition": "Hepatitis",
      "State": "ID",
      "Status": "Production"
    },
    {
      "Condition": "Hepatitis",
      "State": "IN",
      "Status": "Production"
    },
    {
      "Condition": "Hepatitis",
      "State": "IA",
      "Status": "Production"
    },
    {
      "Condition": "Hepatitis",
      "State": "LA",
      "Status": "Production"
    },
    {
      "Condition": "Hepatitis",
      "State": "MA",
      "Status": "Production"
    },
    {
      "Condition": "Hepatitis",
      "State": "MI",
      "Status": "Production"
    },
    {
      "Condition": "Hepatitis",
      "State": "MN",
      "Status": "Production"
    },
    {
      "Condition": "Hepatitis",
      "State": "NE",
      "Status": "Production"
    },
    {
      "Condition": "Hepatitis",
      "State": "NJ",
      "Status": "Production"
    },
    {
      "Condition": "Hepatitis",
      "State": "NY",
      "Status": "Production"
    },
    {
      "Condition": "Hepatitis",
      "State": "OR",
      "Status": "Production"
    },
    {
      "Condition": "Hepatitis",
      "State": "RI",
      "Status": "Production"
    },
    {
      "Condition": "Hepatitis",
      "State": "SC",
      "Status": "Production"
    },
    {
      "Condition": "Hepatitis",
      "State": "TN",
      "Status": "Production"
    },
    {
      "Condition": "Hepatitis",
      "State": "UT",
      "Status": "Production"
    },
    {
      "Condition": "Hepatitis",
      "State": "VA",
      "Status": "Production"
    },
    {
      "Condition": "Hepatitis",
      "State": "WV",
      "Status": "Production"
    },
    {
      "Condition": "Hepatitis",
      "State": "WI",
      "Status": "Production"
    },
    {
      "Condition": "Hepatitis",
      "State": "GU",
      "Status": "Onboarding"
    },
    {
      "Condition": "Hepatitis",
      "State": "PR",
      "Status": "Production"
    },
    {
      "Condition": "Hepatitis",
      "State": "VI",
      "Status": "Onboarding"
    },
    {
      "Condition": "Lyme & TBRD",
      "State": "FL",
      "Status": "Piloting"
    },
    {
      "Condition": "Lyme & TBRD",
      "State": "ID",
      "Status": "Production"
    },
    {
      "Condition": "Lyme & TBRD",
      "State": "IL",
      "Status": "Onboarding"
    },
    {
      "Condition": "Lyme & TBRD",
      "State": "MI",
      "Status": "Production"
    },
    {
      "Condition": "Lyme & TBRD",
      "State": "OR",
      "Status": "Piloting"
    },
    {
      "Condition": "Malaria",
      "State": "CT",
      "Status": "Piloting"
    },
    {
      "Condition": "Malaria",
      "State": "FL",
      "Status": "Piloting"
    },
    {
      "Condition": "Malaria",
      "State": "ID",
      "Status": "Production"
    },
    {
      "Condition": "Malaria",
      "State": "MI",
      "Status": "Production"
    },
    {
      "Condition": "Measles",
      "State": "AL",
      "Status": "Piloting"
    },
    {
      "Condition": "Measles",
      "State": "AZ",
      "Status": "Piloting"
    },
    {
      "Condition": "Measles",
      "State": "FL",
      "Status": "Piloting"
    },
    {
      "Condition": "Measles",
      "State": "OR",
      "Status": "Piloting"
    },
    {
      "Condition": "Mumps",
      "State": "FL",
      "Status": "Piloting"
    },
    {
      "Condition": "Mumps",
      "State": "KS",
      "Status": "Piloting"
    },
    {
      "Condition": "Mumps",
      "State": "MI",
      "Status": "Piloting"
    },
    {
      "Condition": "Mumps",
      "State": "OR",
      "Status": "Piloting"
    },
    {
      "Condition": "Mumps",
      "State": "UT",
      "Status": "Production"
    },
    {
      "Condition": "Mumps",
      "State": "New York City",
      "Status": "Piloting"
    },
    {
      "Condition": "Pertussis",
      "State": "FL",
      "Status": "Piloting"
    },
    {
      "Condition": "Pertussis",
      "State": "KS",
      "Status": "Piloting"
    },
    {
      "Condition": "Pertussis",
      "State": "MI",
      "Status": "Piloting"
    },
    {
      "Condition": "Pertussis",
      "State": "OR",
      "Status": "Piloting"
    },
    {
      "Condition": "Pertussis",
      "State": "UT",
      "Status": "Production"
    },
    {
      "Condition": "Pertussis",
      "State": "New York City",
      "Status": "Piloting"
    },
    {
      "Condition": "RIBD",
      "State": "GA",
      "Status": "Piloting"
    },
    {
      "Condition": "RIBD",
      "State": "OR",
      "Status": "Piloting"
    },
    {
      "Condition": "Rubella",
      "State": "FL",
      "Status": "Piloting"
    },
    {
      "Condition": "Rubella",
      "State": "OR",
      "Status": "Piloting"
    },
    {
      "Condition": "STD",
      "State": "AL",
      "Status": "Production"
    },
    {
      "Condition": "STD",
      "State": "CT",
      "Status": "Production"
    },
    {
      "Condition": "STD",
      "State": "ID",
      "Status": "Production"
    },
    {
      "Condition": "STD",
      "State": "IN",
      "Status": "Onboarding"
    },
    {
      "Condition": "STD",
      "State": "KY",
      "Status": "Production"
    },
    {
      "Condition": "STD",
      "State": "MI",
      "Status": "Production"
    },
    {
      "Condition": "STD",
      "State": "NC",
      "Status": "Production"
    },
    {
      "Condition": "STD",
      "State": "OR",
      "Status": "Production"
    },
    {
      "Condition": "STD",
      "State": "SC",
      "Status": "Production"
    },
    {
      "Condition": "STD",
      "State": "WI",
      "Status": "Production"
    },
    {
      "Condition": "TB & LTBI",
      "State": "AZ",
      "Status": "Onboarding"
    },
    {
      "Condition": "TB & LTBI",
      "State": "MI",
      "Status": "Onboarding"
    },
    {
      "Condition": "TB & LTBI",
      "State": "OR",
      "Status": "Production"
    },
    {
      "Condition": "Trichinellosis",
      "State": "CT",
      "Status": "Piloting"
    },
    {
      "Condition": "Trichinellosis",
      "State": "FL",
      "Status": "Piloting"
    },
    {
      "Condition": "Trichinellosis",
      "State": "ID",
      "Status": "Onboarding"
    },
    {
      "Condition": "Trichinellosis",
      "State": "MI",
      "Status": "Production"
    },
    {
      "Condition": "Trichinellosis",
      "State": "WI",
      "Status": "Production"
    },
    {
      "Condition": "Varicella",
      "State": "FL",
      "Status": "Piloting"
    },
    {
      "Condition": "Varicella",
      "State": "KS",
      "Status": "Piloting"
    },
    {
      "Condition": "Varicella",
      "State": "MI",
      "Status": "Piloting"
    },
    {
      "Condition": "Varicella",
      "State": "SC",
      "Status": "Piloting"
    },
    {
      "Condition": "Varicella",
      "State": "UT",
      "Status": "Production"
    }
  ],
  "dataFileName": "undefined.csv",
  "dataFileSourceType": "file",
  "dataDescription": {
    "horizontal": true
  },
  "geoType": "us",
  "geoBorderColor": "darkGray",
  "headerColor": "theme-blue",
  "showTitle": true,
  "showSidebar": true,
  "showDownloadButton": true,
  "showDownloadMediaButton": false,
  "displayAsHex": false,
  "displayStateLabels": false,
  "territoriesLabel": "Territories",
  "language": "en",
  "hasRegions": false,
  "expandDataTable": true,
  "fullBorder": false,
  "dataTable": {
    "title": "Data Table",
    "forceDisplay": true
  },
  "validated": 4.23
}
