{
  "general": {
    "title": "Example Data Map with Cities",
    "subtext": "*: Lorem ipsum; NA: Lorem ipsum.",
    "type": "data",
    "geoType": "us",
    "headerColor": "theme-cyan",
    "showSidebar": true,
    "showTitle": true,
    "showDownloadButton": true,
    "expandDataTable": true,
    "backgroundColor": "#f5f5f5",
    "geoBorderColor": "darkGray",
    "territoriesLabel": "Territories",
    "language": "en",
    "hasRegions": false,
    "displayAsHex": true,
    "showDownloadMediaButton": false,
    "displayStateLabels": false,
    "territoriesAlwaysShow": false,
    "geoLabelOverride": "",
    "fullBorder": false,
    "convertFipsCodes": true,
    "palette": {
      "isReversed": false
    },
    "allowMapZoom": true,
    "hideGeoColumnInTooltip": false,
    "hidePrimaryColumnInTooltip": false,
    "statePicked": {
      "fipsCode": "01",
      "stateName": "Alabama"
    }
  },
  "type": "map",
  "color": "yelloworangered",
  "columns": {
    "geo": {
      "dataTable": true,
      "label": "",
      "name": "STATE",
      "tooltip": false
    },
    "primary": {
      "dataTable": true,
      "label": "Rate",
      "name": "Rate",
      "prefix": "",
      "suffix": "",
      "tooltip": false
    },
    "navigate": {
      "dataTable": false,
      "name": "",
      "tooltip": false
    },
    "additionalColumn1": {
      "label": "Location",
      "dataTable": true,
      "tooltips": false,
      "prefix": "",
      "suffix": "",
      "name": "Location",
      "tooltip": true
    },
    "geosInRegion": {
      "name": ""
    },
    "latitude": {
      "name": ""
    },
    "longitude": {
      "name": ""
    }
  },
  "legend": {
    "numberOfItems": 3,
    "position": "side",
    "title": "Legend Title",
    "description": "Legend Text",
    "type": "equalnumber",
    "specialClasses": [
      {
        "key": "Rate",
        "value": "*",
        "label": "*"
      },
      {
        "key": "Rate",
        "value": "NA",
        "label": "N/A"
      }
    ],
    "unified": false,
    "singleColumn": false,
    "dynamicDescription": false,
    "descriptions": {},
    "singleRow": false,
    "verticalSorted": false,
    "showSpecialClassesLast": false
  },
  "filters": [
    {
      "label": "",
      "values": [],
      "columnName": "Condition"
    }
  ],
  "table": {
    "wrapColumns": false,
    "label": "Data Table",
    "expanded": false,
    "limitHeight": false,
    "height": "",
    "caption": "",
    "showDownloadUrl": false,
    "showDataTableLink": true,
    "showFullGeoNameInCSV": false,
    "forceDisplay": true,
    "download": false,
    "indexLabel": ""
  },
  "tooltips": {
    "appearanceType": "hover",
    "linkLabel": "Learn More",
    "capitalizeLabels": true,
    "opacity": 90
  },
  "runtime": {
    "editorErrorMessage": []
  },
  "visual": {
    "minBubbleSize": 1,
    "maxBubbleSize": 20,
    "extraBubbleBorder": false,
    "cityStyle": "circle",
    "geoCodeCircleSize": 8,
    "showBubbleZeros": false
  },
  "mapPosition": {
    "coordinates": [0, 30],
    "zoom": 1
  },
  "map": {
    "layers": [],
    "patterns": []
  },
  "hexMap": {
    "type": "shapes",
    "shapeGroups": [
      {
        "legendTitle": "Test",
        "legendDescription": "test",
        "items": [
          {
            "key": "STATE",
            "shape": "Arrow Up",
            "column": "",
            "operator": "=",
            "value": "NV"
          }
        ]
      }
    ]
  },
  "filterBehavior": "Filter Change",
  "data": [
    {
      "STATE": "AL",
      "Rate": 10,
      "Location": "Home",
      "URL": "https://www.cdc.gov/",
      "group": "Main Group"
    },
    {
      "STATE": "AK",
      "Rate": 12,
      "Location": "Vehicle",
      "URL": "https://www.cdc.gov/",
      "group": "Main Group"
    },
    {
      "STATE": "AS",
      "Rate": 14,
      "Location": "Work",
      "URL": "https://www.cdc.gov/",
      "group": "Main Group"
    },
    {
      "STATE": "AZ",
      "Rate": 9,
      "Location": "School",
      "URL": "https://www.cdc.gov/",
      "group": "Main Group"
    },
    {
      "STATE": "AR",
      "Rate": 17,
      "Location": "School",
      "URL": "https://www.cdc.gov/",
      "group": "Main Group"
    },
    {
      "STATE": "CA",
      "Rate": "*",
      "Location": "Work",
      "URL": "https://www.cdc.gov/",
      "group": "Second Group"
    },
    {
      "STATE": "CO",
      "Rate": 22,
      "Location": "Vehicle",
      "URL": "https://www.cdc.gov/",
      "group": "Second Group"
    },
    {
      "STATE": "CT",
      "Rate": 10,
      "Location": "Home",
      "URL": "https://www.cdc.gov/",
      "group": "Second Group"
    },
    {
      "STATE": "DE",
      "Rate": 12,
      "Location": "Home",
      "URL": "https://www.cdc.gov/",
      "group": "Second Group"
    },
    {
      "STATE": "District of Columbia",
      "Rate": 14,
      "Location": "Home",
      "URL": "https://www.cdc.gov/",
      "group": "Second Group"
    },
    {
      "STATE": "FL",
      "Rate": 9,
      "Location": "Vehicle",
      "URL": "https://www.cdc.gov/",
      "group": "Second Group"
    },
    {
      "STATE": "GA",
      "Rate": 17,
      "Location": "Work",
      "URL": "https://www.cdc.gov/",
      "group": "Second Group"
    },
    {
      "STATE": "GU",
      "Rate": 20,
      "Location": "School",
      "URL": "https://www.cdc.gov/",
      "group": "Second Group"
    },
    {
      "STATE": "HI",
      "Rate": 22,
      "Location": "School",
      "URL": "https://www.cdc.gov/",
      "group": "Second Group"
    },
    {
      "STATE": "ID",
      "Rate": "*",
      "Location": "Work",
      "URL": "https://www.cdc.gov/",
      "group": "Second Group"
    },
    {
      "STATE": "IL",
      "Rate": 12,
      "Location": "Vehicle",
      "URL": "https://www.cdc.gov/",
      "group": "Third Group"
    },
    {
      "STATE": "IN",
      "Rate": 14,
      "Location": "Home",
      "URL": "https://www.cdc.gov/",
      "group": "Third Group"
    },
    {
      "STATE": "IA",
      "Rate": 9,
      "Location": "Home",
      "URL": "https://www.cdc.gov/",
      "group": "Third Group"
    },
    {
      "STATE": "KS",
      "Rate": "NA",
      "Location": "Home",
      "URL": "https://www.cdc.gov/",
      "group": "Third Group"
    },
    {
      "STATE": "KY",
      "Rate": 20,
      "Location": "Vehicle",
      "URL": "https://www.cdc.gov/",
      "group": "Third Group"
    },
    {
      "STATE": "LA",
      "Rate": 22,
      "Location": "Work",
      "URL": "https://www.cdc.gov/",
      "group": "Third Group"
    },
    {
      "STATE": "ME",
      "Rate": 10,
      "Location": "School",
      "URL": "https://www.cdc.gov/",
      "group": "Third Group"
    },
    {
      "STATE": "MH",
      "Rate": 12,
      "Location": "School",
      "URL": "https://www.cdc.gov/",
      "group": "Third Group"
    },
    {
      "STATE": "MD",
      "Rate": "*",
      "Location": "Work",
      "URL": "https://www.cdc.gov/",
      "group": "Third Group"
    },
    {
      "STATE": "MA",
      "Rate": 9,
      "Location": "Vehicle",
      "URL": "https://www.cdc.gov/",
      "group": "Fifth Group"
    },
    {
      "STATE": "MI",
      "Rate": 17,
      "Location": "Home",
      "URL": "https://www.cdc.gov/",
      "group": "Fifth Group"
    },
    {
      "STATE": "FM",
      "Rate": 20,
      "Location": "Home",
      "URL": "https://www.cdc.gov/",
      "group": "Fifth Group"
    },
    {
      "STATE": "MN",
      "Rate": 22,
      "Location": "Home",
      "URL": "https://www.cdc.gov/",
      "group": "Fifth Group"
    },
    {
      "STATE": "MS",
      "Rate": 10,
      "Location": "Vehicle",
      "URL": "https://www.cdc.gov/",
      "group": "Fifth Group"
    },
    {
      "STATE": "MO",
      "Rate": 11,
      "Location": "Work",
      "URL": "https://www.cdc.gov/",
      "group": "Fifth Group"
    },
    {
      "STATE": "MT",
      "Rate": 14,
      "Location": "School",
      "URL": "https://www.cdc.gov/",
      "group": "Fifth Group"
    },
    {
      "STATE": "NE",
      "Rate": 9,
      "Location": "School",
      "URL": "https://www.cdc.gov/"
    },
    {
      "STATE": "NV",
      "Rate": 17,
      "Location": "Work",
      "URL": "https://www.cdc.gov/",
      "group": "Fifth Group"
    },
    {
      "STATE": "NH",
      "Rate": 20,
      "Location": "Vehicle",
      "URL": "https://www.cdc.gov/",
      "group": "Fifth Group"
    },
    {
      "STATE": "NJ",
      "Rate": 28,
      "Location": "Home",
      "URL": "https://www.cdc.gov/",
      "group": "six Group"
    },
    {
      "STATE": "NM",
      "Rate": 10,
      "Location": "Home",
      "URL": "https://www.cdc.gov/",
      "group": "six Group"
    },
    {
      "STATE": "NY",
      "Rate": 12,
      "Location": "Home",
      "URL": "https://www.cdc.gov/",
      "group": "six Group"
    },
    {
      "STATE": "NC",
      "Rate": 14,
      "Location": "Vehicle",
      "URL": "https://www.cdc.gov/",
      "group": "six Group"
    },
    {
      "STATE": "ND",
      "Rate": 9,
      "Location": "Work",
      "URL": "https://www.cdc.gov/",
      "group": "six Group"
    },
    {
      "STATE": "MP",
      "Rate": 17,
      "Location": "School",
      "URL": "https://www.cdc.gov/",
      "group": "seventh Group"
    },
    {
      "STATE": "OH",
      "Rate": "NA",
      "Location": "School",
      "URL": "https://www.cdc.gov/",
      "group": "seventh Group"
    },
    {
      "STATE": "OK",
      "Rate": 22,
      "Location": "Work",
      "URL": "https://www.cdc.gov/",
      "group": "seventh Group"
    },
    {
      "STATE": "OR",
      "Rate": 10,
      "Location": "Vehicle",
      "URL": "https://www.cdc.gov/",
      "group": "seventh Group"
    },
    {
      "STATE": "PW",
      "Rate": 12,
      "Location": "Home",
      "URL": "https://www.cdc.gov/",
      "group": "seventh Group"
    },
    {
      "STATE": "PA",
      "Rate": 14,
      "Location": "Home",
      "URL": "https://www.cdc.gov/",
      "group": "seventh Group"
    },
    {
      "STATE": "PR",
      "Rate": 6,
      "Location": "Home",
      "URL": "https://www.cdc.gov/",
      "group": "alfa Group"
    },
    {
      "STATE": "RI",
      "Rate": 17,
      "Location": "Vehicle",
      "URL": "https://www.cdc.gov/",
      "group": "alfa Group"
    },
    {
      "STATE": "SC",
      "Rate": 20,
      "Location": "Work",
      "URL": "https://www.cdc.gov/",
      "group": "alfa Group"
    },
    {
      "STATE": "SD",
      "Rate": 22,
      "Location": "School",
      "URL": "https://www.cdc.gov/",
      "group": "alfa Group"
    },
    {
      "STATE": "TN",
      "Rate": 10,
      "Location": "School",
      "URL": "https://www.cdc.gov/",
      "group": "alfa Group"
    },
    {
      "STATE": "TX",
      "Rate": 12,
      "Location": "Work",
      "URL": "https://www.cdc.gov/",
      "group": "unique Group"
    },
    {
      "STATE": "VT",
      "Rate": 9,
      "Location": "Home",
      "URL": "https://www.cdc.gov/",
      "group": "unique Group"
    },
    {
      "STATE": "VI",
      "Rate": 17,
      "Location": "Vehicle",
      "URL": "https://www.cdc.gov/",
      "group": "unique Group"
    },
    {
      "STATE": "VA",
      "Rate": 20,
      "Location": "Work",
      "URL": "https://www.cdc.gov/",
      "group": "unique Group"
    },
    {
      "STATE": "WA",
      "Rate": 22,
      "Location": "School",
      "URL": "https://www.cdc.gov/",
      "group": "unique Group"
    },
    {
      "STATE": "WV",
      "Rate": 10,
      "Location": "School",
      "URL": "https://www.cdc.gov/",
      "group": "eight Group"
    },
    {
      "STATE": "WI",
      "Rate": 12,
      "Location": "Work",
      "URL": "https://www.cdc.gov/",
      "group": "eight Group"
    },
    {
      "STATE": "WY",
      "Rate": 14,
      "Location": "Home",
      "URL": "https://www.cdc.gov/",
      "group": "eight Group"
    },
    {
      "STATE": "Los Angeles",
      "Rate": 14,
      "Location": "Vehicle",
      "URL": "https://www.cdc.gov/",
      "group": "eight Group"
    },
    {
      "STATE": "Atlanta",
      "Rate": 12,
      "Location": "Work",
      "URL": "https://www.cdc.gov/",
      "group": "eight Group"
    },
    {
      "STATE": "Boston",
      "Rate": 20,
      "Location": "School",
      "URL": "https://www.cdc.gov/",
      "group": "seventh Group"
    },
    {
      "STATE": "New York City",
      "Rate": 22,
      "Location": "School",
      "URL": "https://www.cdc.gov/",
      "group": "eight Group"
    },
    {
      "STATE": "Dallas",
      "Rate": 18,
      "Location": "Work",
      "URL": "https://www.cdc.gov/",
      "group": "seventh Group"
    },
    {
      "STATE": "Seattle",
      "Rate": 17,
      "Location": "Home",
      "URL": "https://www.cdc.gov/",
      "group": "seventh Group"
    },
    {
      "STATE": "New Orleans",
      "Rate": 14,
      "Location": "Vehicle",
      "URL": "https://www.cdc.gov/",
      "group": "eight Group"
    }
  ],
  "sharing": {
    "enabled": false,
    "dataHost": "wcms-wp.cdc.gov",
    "configUrl": "/wcms/4.0/cdc-wp/data-presentation/examples/city-data-map-example.json"
  },
  "dataTable": {
    "title": "Data Table"
  },
  "usingWidgetLoader": true,
  "validated": 4.23
}
