{
  "general": {
    "geoBorderColor": "darkGray",
    "headerColor": "theme-blue",
    "title": "",
    "showTitle": true,
    "showSidebar": true,
    "showDownloadButton": false,
    "showDownloadMediaButton": false,
    "displayAsHex": false,
    "displayStateLabels": false,
    "territoriesLabel": "Territories",
    "territoriesAlwaysShow": false,
    "language": "en",
    "geoType": "us",
    "geoLabelOverride": "State/Territory",
    "hasRegions": false,
    "fullBorder": false,
    "type": "map",
    "convertFipsCodes": true,
    "palette": {
      "isReversed": true
    },
    "allowMapZoom": true,
    "hideGeoColumnInTooltip": false,
    "hidePrimaryColumnInTooltip": true,
    "statePicked": {
      "fipsCode": "01",
      "stateName": "Alabama"
    },
    "equalNumberOptIn": true,
    "subtext": "<div class=\"card mb-3\"><div class=\"card-body bg-gray-l2\"><p>Testing has resumed for commercial contract wastewater sites (about 350 sites) that have had a temporary delay since September 15, 2023. Once sites have six weeks of data, the wastewater viral activity levels will be displayed.</p> </div></div><div class=\"text-left ml-3 pb-3\">Data last updated <span class=\"date\">FromDB</span></div>",
    "introText": "",
    "footnotes": ""
  },
  "type": "map",
  "color": "greenbluereverse",
  "columns": {
    "geo": {
      "name": "state",
      "label": "Location",
      "tooltip": false,
      "dataTable": true
    },
    "primary": {
      "dataTable": false,
      "tooltip": true,
      "prefix": "",
      "suffix": "",
      "name": "activity_level",
      "label": "Numeric Activity Level"
    },
    "navigate": {
      "name": ""
    },
    "latitude": {
      "name": ""
    },
    "longitude": {
      "name": ""
    },
    "additionalColumn1": {
      "label": "Viral Activity Level",
      "dataTable": true,
      "tooltips": false,
      "prefix": "",
      "suffix": "",
      "name": "activity_level_label",
      "tooltip": true
    }
  },
  "legend": {
    "descriptions": {},
    "specialClasses": [],
    "unified": false,
    "singleColumn": false,
    "singleRow": false,
    "verticalSorted": true,
    "showSpecialClassesLast": true,
    "dynamicDescription": false,
    "type": "category",
    "numberOfItems": 8,
    "position": "bottom",
    "title": "Current SARS-CoV-2 Wastewater Viral Activity Level",
    "categoryValuesOrder": [
      "10",
      "9",
      "8",
      "7",
      "6",
      "5",
      "4",
      "3",
      "2",
      "1",
      "No Data"
    ],
    "additionalCategories": [
      "No Data",
      "1",
      "2",
      "3",
      "4",
      "5",
      "6",
      "7",
      "8",
      "9",
      "10"
    ],
    "description": "Select a level to add or remove it from the visualization. "
  },
  "filters": [],
  "table": {
    "label": "Data Table",
    "expanded": false,
    "limitHeight": true,
    "height": "500",
    "caption": "",
    "showDownloadUrl": true,
    "showDataTableLink": true,
    "showFullGeoNameInCSV": false,
    "forceDisplay": true,
    "download": false,
    "indexLabel": "State/Territory"
  },
  "tooltips": {
    "appearanceType": "hover",
    "linkLabel": "Learn More",
    "capitalizeLabels": true,
    "opacity": 90
  },
  "runtime": {
    "editorErrorMessage": []
  },
  "visual": {
    "minBubbleSize": 1,
    "maxBubbleSize": 20,
    "extraBubbleBorder": false,
    "cityStyle": "circle",
    "geoCodeCircleSize": 2,
    "showBubbleZeros": false
  },
  "mapPosition": {
    "coordinates": [
      0,
      30
    ],
    "zoom": 1
  },
  "map": {
    "layers": [],
    "patterns": [
      {
        "dataKey": "activity_level_label",
        "pattern": "circles",
        "dataValue": "Moderate"
      }
    ]
  },
  "hexMap": {
    "type": "",
    "shapeGroups": [
      {
        "legendTitle": "",
        "legendDescription": "",
        "items": [
          {
            "key": "",
            "shape": "Arrow up",
            "column": "",
            "operator": "=",
            "value": ""
          }
        ]
      }
    ]
  },
  "filterBehavior": "Filter Change",
  "customColors": [
    "#0A1B40",
    "#073A5D",
    "#185A77",
    "#367A8D",
    "#5B9CA1",
    "#86BDB4",
    "#B4DECA",
    "#E5FFE3",
    "#F2FFF1",
    "#FFFFFF",
    "#B4B4B4"
  ],
  "dataFileSourceType": "url",
  "dataDescription": {
    "horizontal": false,
    "series": false
  },
  "validated": 4.23,
  "data": [
    {
      "state_name": "Utah",
      "state": "UT",
      "activity_level": "8",
      "activity_level_label": "High",
      "num_sites": "31"
    },
    {
      "state_name": "Hawaii",
      "state": "HI",
      "activity_level": "2",
      "activity_level_label": "Minimal",
      "num_sites": "6"
    },
    {
      "state_name": "Minnesota",
      "state": "MN",
      "activity_level": "6",
      "activity_level_label": "Moderate",
      "num_sites": "15"
    },
    {
      "state_name": "Ohio",
      "state": "OH",
      "activity_level": "9",
      "activity_level_label": "Very High",
      "num_sites": "66"
    },
    {
      "state_name": "Arkansas",
      "state": "AR",
      "activity_level": "10",
      "activity_level_label": "Very High",
      "num_sites": "1"
    },
    {
      "state_name": "Oregon",
      "state": "OR",
      "activity_level": "1",
      "activity_level_label": "Minimal",
      "num_sites": "9"
    },
    {
      "state_name": "Texas",
      "state": "TX",
      "activity_level": "7",
      "activity_level_label": "High",
      "num_sites": "14"
    },
    {
      "state_name": "North Dakota",
      "state": "ND",
      "activity_level": "No Data",
      "activity_level_label": "No Data",
      "num_sites": "0"
    },
    {
      "state_name": "Pennsylvania",
      "state": "PA",
      "activity_level": "6",
      "activity_level_label": "Moderate",
      "num_sites": "17"
    },
    {
      "state_name": "Connecticut",
      "state": "CT",
      "activity_level": "No Data",
      "activity_level_label": "No Data",
      "num_sites": "0"
    },
    {
      "state_name": "Vermont",
      "state": "VT",
      "activity_level": "10",
      "activity_level_label": "Very High",
      "num_sites": "3"
    },
    {
      "state_name": "Nebraska",
      "state": "NE",
      "activity_level": "7",
      "activity_level_label": "High",
      "num_sites": "2"
    },
    {
      "state_name": "Nevada",
      "state": "NV",
      "activity_level": "7",
      "activity_level_label": "High",
      "num_sites": "1"
    },
    {
      "state_name": "Puerto Rico",
      "state": "PR",
      "activity_level": "No Data",
      "activity_level_label": "No Data",
      "num_sites": "0"
    },
    {
      "state_name": "Washington",
      "state": "WA",
      "activity_level": "3",
      "activity_level_label": "Low",
      "num_sites": "14"
    },
    {
      "state_name": "Illinois",
      "state": "IL",
      "activity_level": "8",
      "activity_level_label": "High",
      "num_sites": "70"
    },
    {
      "state_name": "Oklahoma",
      "state": "OK",
      "activity_level": "No Data",
      "activity_level_label": "No Data",
      "num_sites": "0"
    },
    {
      "state_name": "Virgin Islands",
      "state": "VI",
      "activity_level": "No Data",
      "activity_level_label": "No Data",
      "num_sites": "0"
    },
    {
      "state_name": "District of Columbia",
      "state": "DC",
      "activity_level": "No Data",
      "activity_level_label": "No Data",
      "num_sites": "0"
    },
    {
      "state_name": "Delaware",
      "state": "DE",
      "activity_level": "8",
      "activity_level_label": "High",
      "num_sites": "8"
    },
    {
      "state_name": "Alaska",
      "state": "AK",
      "activity_level": "4",
      "activity_level_label": "Low",
      "num_sites": "1"
    },
    {
      "state_name": "New Mexico",
      "state": "NM",
      "activity_level": "No Data",
      "activity_level_label": "No Data",
      "num_sites": "0"
    },
    {
      "state_name": "West Virginia",
      "state": "WV",
      "activity_level": "8",
      "activity_level_label": "High",
      "num_sites": "1"
    },
    {
      "state_name": "Missouri",
      "state": "MO",
      "activity_level": "7",
      "activity_level_label": "High",
      "num_sites": "42"
    },
    {
      "state_name": "Rhode Island",
      "state": "RI",
      "activity_level": "2",
      "activity_level_label": "Minimal",
      "num_sites": "6"
    },
    {
      "state_name": "Georgia",
      "state": "GA",
      "activity_level": "4",
      "activity_level_label": "Low",
      "num_sites": "8"
    },
    {
      "state_name": "Montana",
      "state": "MT",
      "activity_level": "10",
      "activity_level_label": "Very High",
      "num_sites": "4"
    },
    {
      "state_name": "Michigan",
      "state": "MI",
      "activity_level": "10",
      "activity_level_label": "Very High",
      "num_sites": "24"
    },
    {
      "state_name": "Virginia",
      "state": "VA",
      "activity_level": "5",
      "activity_level_label": "Moderate",
      "num_sites": "32"
    },
    {
      "state_name": "Guam",
      "state": "GU",
      "activity_level": "No Data",
      "activity_level_label": "No Data",
      "num_sites": "0"
    },
    {
      "state_name": "North Carolina",
      "state": "NC",
      "activity_level": "8",
      "activity_level_label": "High",
      "num_sites": "7"
    },
    {
      "state_name": "Wyoming",
      "state": "WY",
      "activity_level": "No Data",
      "activity_level_label": "No Data",
      "num_sites": "0"
    },
    {
      "state_name": "Kansas",
      "state": "KS",
      "activity_level": "10",
      "activity_level_label": "Very High",
      "num_sites": "5"
    },
    {
      "state_name": "New Jersey",
      "state": "NJ",
      "activity_level": "8",
      "activity_level_label": "High",
      "num_sites": "23"
    },
    {
      "state_name": "Maryland",
      "state": "MD",
      "activity_level": "7",
      "activity_level_label": "High",
      "num_sites": "2"
    },
    {
      "state_name": "Alabama",
      "state": "AL",
      "activity_level": "7",
      "activity_level_label": "High",
      "num_sites": "5"
    },
    {
      "state_name": "Arizona",
      "state": "AZ",
      "activity_level": "7",
      "activity_level_label": "High",
      "num_sites": "8"
    },
    {
      "state_name": "Iowa",
      "state": "IA",
      "activity_level": "10",
      "activity_level_label": "Very High",
      "num_sites": "5"
    },
    {
      "state_name": "Massachusetts",
      "state": "MA",
      "activity_level": "6",
      "activity_level_label": "Moderate",
      "num_sites": "1"
    },
    {
      "state_name": "Kentucky",
      "state": "KY",
      "activity_level": "5",
      "activity_level_label": "Moderate",
      "num_sites": "1"
    },
    {
      "state_name": "Louisiana",
      "state": "LA",
      "activity_level": "No Data",
      "activity_level_label": "No Data",
      "num_sites": "0"
    },
    {
      "state_name": "Mississippi",
      "state": "MS",
      "activity_level": "No Data",
      "activity_level_label": "No Data",
      "num_sites": "0"
    },
    {
      "state_name": "Tennessee",
      "state": "TN",
      "activity_level": "6",
      "activity_level_label": "Moderate",
      "num_sites": "2"
    },
    {
      "state_name": "New Hampshire",
      "state": "NH",
      "activity_level": "5",
      "activity_level_label": "Moderate",
      "num_sites": "11"
    },
    {
      "state_name": "Florida",
      "state": "FL",
      "activity_level": "6",
      "activity_level_label": "Moderate",
      "num_sites": "16"
    },
    {
      "state_name": "Indiana",
      "state": "IN",
      "activity_level": "8",
      "activity_level_label": "High",
      "num_sites": "20"
    },
    {
      "state_name": "Idaho",
      "state": "ID",
      "activity_level": "7",
      "activity_level_label": "High",
      "num_sites": "9"
    },
    {
      "state_name": "South Carolina",
      "state": "SC",
      "activity_level": "4",
      "activity_level_label": "Low",
      "num_sites": "3"
    },
    {
      "state_name": "South Dakota",
      "state": "SD",
      "activity_level": "8",
      "activity_level_label": "High",
      "num_sites": "1"
    },
    {
      "state_name": "California",
      "state": "CA",
      "activity_level": "5",
      "activity_level_label": "Moderate",
      "num_sites": "62"
    },
    {
      "state_name": "New York",
      "state": "NY",
      "activity_level": "8",
      "activity_level_label": "High",
      "num_sites": "117"
    },
    {
      "state_name": "Wisconsin",
      "state": "WI",
      "activity_level": "9",
      "activity_level_label": "Very High",
      "num_sites": "39"
    },
    {
      "state_name": "Maine",
      "state": "ME",
      "activity_level": "8",
      "activity_level_label": "High",
      "num_sites": "14"
    },
    {
      "state_name": "Colorado",
      "state": "CO",
      "activity_level": "5",
      "activity_level_label": "Moderate",
      "num_sites": "46"
    }
  ]
}