{
  "annotations": [],
  "general": {
    "statePicked": {
      "fipsCode": "32",
      "stateName": "Nevada"
    },
    "geoType": "us",
    "geoBorderColor": "darkGray",
    "headerColor": "theme-blue",
    "showTitle": true,
    "showSidebar": true,
    "showDownloadButton": true,
    "showDownloadMediaButton": false,
    "displayAsHex": false,
    "displayStateLabels": false,
    "territoriesLabel": "Territories",
    "language": "en",
    "hasRegions": false,
    "expandDataTable": false,
    "fullBorder": false,
    "type": "map",
    "title": "Default US Map",
    "palette": {
      "isReversed": false
    },
    "allowMapZoom": true,
    "hideGeoColumnInTooltip": false,
    "hidePrimaryColumnInTooltip": false,
    "territoriesAlwaysShow": false,
    "geoLabelOverride": "",
    "noStateFoundMessage": "Map Unavailable",
    "annotationDropdownText": "Annotations",
    "convertFipsCodes": true
  },
  "type": "map",
  "color": "pinkpurple",
  "columns": {
    "geo": {
      "name": "City",
      "label": "Location",
      "tooltip": false,
      "dataTable": true
    },
    "primary": {
      "dataTable": true,
      "tooltip": true,
      "prefix": "",
      "suffix": "",
      "name": "Value",
      "label": "",
      "roundToPlace": 0
    },
    "navigate": {
      "name": "Condition"
    },
    "latitude": {
      "name": "Latitude"
    },
    "longitude": {
      "name": "Longitude"
    }
  },
  "legend": {
    "descriptions": {},
    "specialClasses": [],
    "unified": false,
    "singleColumn": false,
    "dynamicDescription": false,
    "type": "equalnumber",
    "numberOfItems": 3,
    "position": "side",
    "title": "Legend",
    "singleRow": false,
    "showSpecialClassesLast": false,
    "verticalSorted": false,
    "style": "circles",
    "subStyle": "linear blocks",
    "tickRotation": "",
    "singleColumnLegend": false,
    "hideBorder": false
  },
  "filters": [],
  "table": {
    "label": "Data Table",
    "expanded": false,
    "limitHeight": false,
    "height": "",
    "caption": "",
    "showDownloadUrl": false,
    "showDataTableLink": true,
    "showFullGeoNameInCSV": false,
    "forceDisplay": true,
    "download": true,
    "indexLabel": "",
    "wrapColumns": false,
    "showDownloadLinkBelow": true
  },
  "tooltips": {
    "appearanceType": "hover",
    "linkLabel": "Learn More",
    "capitalizeLabels": true,
    "opacity": 90
  },
  "runtime": {
    "editorErrorMessage": []
  },
  "visual": {
    "minBubbleSize": 1,
    "maxBubbleSize": 20,
    "extraBubbleBorder": false,
    "cityStyle": "circle",
    "geoCodeCircleSize": "3",
    "showBubbleZeros": false,
    "cityStyleLabel": "",
    "additionalCityStyles": []
  },
  "mapPosition": {
    "coordinates": [
      0,
      30
    ],
    "zoom": 1
  },
  "map": {
    "layers": [],
    "patterns": []
  },
  "hexMap": {
    "type": "",
    "shapeGroups": [
      {
        "legendTitle": "",
        "legendDescription": "",
        "items": [
          {
            "key": "",
            "shape": "Arrow Up",
            "column": "",
            "operator": "=",
            "value": ""
          }
        ]
      }
    ]
  },
  "filterBehavior": "Filter Change",
  "customColors": [
    "red",
    "orange",
    "yellow",
    "green",
    "blue",
    "violet"
  ],
  "dataTable": {
    "title": "Data Table",
    "forceDisplay": true
  },
  "data": [
    {
      "City": "Albuquerque",
      "Longitude": "-106.650421",
      "Latitude": "35.084385",
      "Value": 1
    },
    {
      "City": "Anaheim",
      "Longitude": "-117.914299",
      "Latitude": "33.836594",
      "Value": 2
    },
    {
      "City": "Anchorage",
      "Longitude": "-149.900284",
      "Latitude": "61.218056",
      "Value": 3
    },
    {
      "City": "Arlington",
      "Longitude": "-97.108063",
      "Latitude": "32.735687",
      "Value": 4
    },
    {
      "City": "Atlanta",
      "Longitude": "-84.387985",
      "Latitude": "33.748997",
      "Value": 5
    },
    {
      "City": "Aurora",
      "Longitude": "-93.717979",
      "Latitude": "36.97089",
      "Value": 6
    },
    {
      "City": "Austin",
      "Longitude": "-97.743057",
      "Latitude": "30.267153",
      "Value": 7
    },
    {
      "City": "Bakersfield",
      "Longitude": "-119.018715",
      "Latitude": "35.373291",
      "Value": 8
    },
    {
      "City": "Baltimore",
      "Longitude": "-76.61219",
      "Latitude": "39.290386",
      "Value": 9
    },
    {
      "City": "Baton Rouge",
      "Longitude": "-91.187149",
      "Latitude": "30.451468",
      "Value": 10
    },
    {
      "City": "Boise",
      "Longitude": "-116.202316",
      "Latitude": "43.615021",
      "Value": 11
    },
    {
      "City": "Boston",
      "Longitude": "-71.058884",
      "Latitude": "42.360081",
      "Value": 12
    },
    {
      "City": "Buffalo",
      "Longitude": "-78.878372",
      "Latitude": "42.886448",
      "Value": 13
    },
    {
      "City": "Chandler",
      "Longitude": "-111.841248",
      "Latitude": "33.30616",
      "Value": 14
    },
    {
      "City": "Charlotte",
      "Longitude": "-80.843124",
      "Latitude": "35.227085",
      "Value": 15
    },
    {
      "City": "Chesapeake",
      "Longitude": "-76.287491",
      "Latitude": "36.768208",
      "Value": 16
    },
    {
      "City": "Chicago",
      "Longitude": "-87.629799",
      "Latitude": "41.878113",
      "Value": 17
    },
    {
      "City": "Chula Vista",
      "Longitude": "-117.084198",
      "Latitude": "32.640053",
      "Value": 18
    },
    {
      "City": "Cincinnati",
      "Longitude": "-84.512016",
      "Latitude": "39.103119",
      "Value": 19
    },
    {
      "City": "Cleveland",
      "Longitude": "-81.694359",
      "Latitude": "41.499321",
      "Value": 20
    },
    {
      "City": "Colorado Springs",
      "Longitude": "-104.821365",
      "Latitude": "38.833881",
      "Value": 21
    },
    {
      "City": "Columbus",
      "Longitude": "-82.998795",
      "Latitude": "39.961178",
      "Value": 22
    },
    {
      "City": "Corpus Christi",
      "Longitude": "-97.396378",
      "Latitude": "27.800583",
      "Value": 23
    },
    {
      "City": "Dallas",
      "Longitude": "-96.796989",
      "Latitude": "32.776665",
      "Value": 24
    },
    {
      "City": "Denver",
      "Longitude": "-104.99025",
      "Latitude": "39.739235",
      "Value": 25
    },
    {
      "City": "Detroit",
      "Longitude": "-83.045753",
      "Latitude": "42.331429",
      "Value": 26
    },
    {
      "City": "District of Columbia",
      "Longitude": "-77.036873",
      "Latitude": "38.907192",
      "Value": 27
    },
    {
      "City": "Durham",
      "Longitude": "-78.898621",
      "Latitude": "35.994034",
      "Value": 28
    },
    {
      "City": "El Paso",
      "Longitude": "-106.485023",
      "Latitude": "31.761877",
      "Value": 29
    },
    {
      "City": "Fort Wayne",
      "Longitude": "-85.139351",
      "Latitude": "41.079273",
      "Value": 30
    },
    {
      "City": "Ft Wayne",
      "Longitude": "-85.139351",
      "Latitude": "41.079273",
      "Value": 31
    },
    {
      "City": "Fort Worth",
      "Longitude": "-97.330765",
      "Latitude": "32.755489",
      "Value": 32
    },
    {
      "City": "Fremont",
      "Longitude": "-121.988571",
      "Latitude": "37.548271",
      "Value": 33
    },
    {
      "City": "Fresno",
      "Longitude": "-119.787125",
      "Latitude": "36.737797",
      "Value": 34
    },
    {
      "City": "Garland",
      "Longitude": "-96.638885",
      "Latitude": "32.912624",
      "Value": 35
    },
    {
      "City": "Gilbert",
      "Longitude": "-111.789024",
      "Latitude": "33.352825",
      "Value": 36
    },
    {
      "City": "Glendale",
      "Longitude": "-118.255074",
      "Latitude": "34.142509",
      "Value": 37
    },
    {
      "City": "Greensboro",
      "Longitude": "-79.791977",
      "Latitude": "36.072636",
      "Value": 38
    },
    {
      "City": "Henderson",
      "Longitude": "-114.98172",
      "Latitude": "36.039524",
      "Value": 39
    },
    {
      "City": "Hialeah",
      "Longitude": "-80.278107",
      "Latitude": "25.857595",
      "Value": 40
    },
    {
      "City": "Honolulu",
      "Longitude": "-157.858337",
      "Latitude": "21.306944",
      "Value": 41
    },
    {
      "City": "Houston",
      "Longitude": "-95.358421",
      "Latitude": "29.749907",
      "Value": 42
    },
    {
      "City": "Indianapolis",
      "Longitude": "-86.158066",
      "Latitude": "39.768402",
      "Value": 43
    },
    {
      "City": "Irvine",
      "Longitude": "-117.826508",
      "Latitude": "33.684566",
      "Value": 44
    },
    {
      "City": "Irving",
      "Longitude": "-96.948891",
      "Latitude": "32.814018",
      "Value": 45
    },
    {
      "City": "Jacksonville",
      "Longitude": "-81.655647",
      "Latitude": "30.332184",
      "Value": 46
    },
    {
      "City": "Jersey City",
      "Longitude": "-74.077644",
      "Latitude": "40.728157",
      "Value": 47
    },
    {
      "City": "Kansas City",
      "Longitude": "-94.578568",
      "Latitude": "39.099728",
      "Value": 48
    },
    {
      "City": "Laredo",
      "Longitude": "-99.507553",
      "Latitude": "27.503561",
      "Value": 49
    },
    {
      "City": "Las Vegas",
      "Longitude": "-115.139832",
      "Latitude": "36.169941",
      "Value": 50
    },
    {
      "City": "Lexington",
      "Longitude": "-84.503716",
      "Latitude": "38.040585",
      "Value": 51
    },
    {
      "City": "Lincoln",
      "Longitude": "-95.262955",
      "Latitude": "37.346134",
      "Value": 52
    },
    {
      "City": "Long Beach",
      "Longitude": "-118.193741",
      "Latitude": "33.77005",
      "Value": 53
    },
    {
      "City": "Los Angeles",
      "Longitude": "-118.243683",
      "Latitude": "34.052235",
      "Value": 54
    },
    {
      "City": "Los Angeles County",
      "Longitude": "-118.229362",
      "Latitude": "34.058762",
      "Value": 55
    },
    {
      "City": "Louisville",
      "Longitude": "-85.758453",
      "Latitude": "38.252666",
      "Value": 56
    },
    {
      "City": "Lubbock",
      "Longitude": "-101.855164",
      "Latitude": "33.577862",
      "Value": 57
    },
    {
      "City": "38",
      "Longitude": "-89.40123",
      "Latitude": "43.073051",
      "Value": 58
    },
    {
      "City": "Marion County, Indiana",
      "Longitude": "-86.136543",
      "Latitude": "39.781029",
      "Value": 59
    },
    {
      "City": "Memphis",
      "Longitude": "-90.048981",
      "Latitude": "35.149532",
      "Value": 60
    },
    {
      "City": "Mesa",
      "Longitude": "-111.831474",
      "Latitude": "33.415184",
      "Value": 61
    },
    {
      "City": "Miami",
      "Longitude": "-80.191788",
      "Latitude": "25.761681",
      "Value": 62
    },
    {
      "City": "Milwaukee",
      "Longitude": "-87.906471",
      "Latitude": "43.038902",
      "Value": 63
    },
    {
      "City": "Minneapolis",
      "Longitude": "-93.265015",
      "Latitude": "44.977753",
      "Value": 64
    },
    {
      "City": "Montgomery County, Maryland",
      "Longitude": "-77.199406",
      "Latitude": "39.153515",
      "Value": 65
    },
    {
      "City": "Nashville",
      "Longitude": "-86.781601",
      "Latitude": "36.162663",
      "Value": 66
    },
    {
      "City": "New Orleans",
      "Longitude": "-90.071533",
      "Latitude": "29.951065",
      "Value": 67
    },
    {
      "City": "New York City",
      "Longitude": "-74.005974",
      "Latitude": "40.712776",
      "Value": 68
    },
    {
      "City": "Newark",
      "Longitude": "-95.582733",
      "Latitude": "37.443188",
      "Value": 69
    },
    {
      "City": "Norfolk",
      "Longitude": "-76.285873",
      "Latitude": "36.850769",
      "Value": 70
    },
    {
      "City": "North Las Vegas",
      "Longitude": "-115.114571",
      "Latitude": "36.19585",
      "Value": 71
    },
    {
      "City": "Oakland",
      "Longitude": "-122.271111",
      "Latitude": "37.804363",
      "Value": 72
    },
    {
      "City": "Oklahoma City",
      "Longitude": "-97.516426",
      "Latitude": "35.46756",
      "Value": 73
    },
    {
      "City": "Omaha",
      "Longitude": "-95.934502",
      "Latitude": "41.256538",
      "Value": 74
    },
    {
      "City": "Orlando",
      "Longitude": "-81.379234",
      "Latitude": "28.538336",
      "Value": 75
    },
    {
      "City": "Philadelphia",
      "Longitude": "-75.165222",
      "Latitude": "39.952583",
      "Value": 76
    },
    {
      "City": "Phoenix",
      "Longitude": "-112.074036",
      "Latitude": "33.448376",
      "Value": 77
    },
    {
      "City": "Pittsburgh",
      "Longitude": "-79.995888",
      "Latitude": "40.440624",
      "Value": 78
    },
    {
      "City": "Plano",
      "Longitude": "-96.698883",
      "Latitude": "33.019844",
      "Value": 79
    },
    {
      "City": "Portland",
      "Longitude": "-122.658722",
      "Latitude": "45.51223",
      "Value": 80
    },
    {
      "City": "Raleigh",
      "Longitude": "-78.638176",
      "Latitude": "35.779591",
      "Value": 81
    },
    {
      "City": "Reno",
      "Longitude": "-119.813805",
      "Latitude": "39.529633",
      "Value": 82
    },
    {
      "City": "Richmond, Virginia",
      "Longitude": "-77.43605",
      "Latitude": "37.540726",
      "Value": 83
    },
    {
      "City": "Riverside",
      "Longitude": "-117.375496",
      "Latitude": "33.980602",
      "Value": 84
    },
    {
      "City": "Sacramento",
      "Longitude": "-121.4944",
      "Latitude": "38.581573",
      "Value": 85
    },
    {
      "City": "Saint Paul",
      "Longitude": "-93.089958",
      "Latitude": "44.953705",
      "Value": 86
    },
    {
      "City": "San Antonio",
      "Longitude": "-98.493629",
      "Latitude": "29.424122",
      "Value": 87
    },
    {
      "City": "San Diego",
      "Longitude": "-117.161087",
      "Latitude": "32.715736",
      "Value": 88
    },
    {
      "City": "San Francisco",
      "Longitude": "-122.419418",
      "Latitude": "37.774929",
      "Value": 89
    },
    {
      "City": "San Jose",
      "Longitude": "-121.88633",
      "Latitude": "37.338207",
      "Value": 90
    },
    {
      "City": "Santa Ana",
      "Longitude": "-117.867653",
      "Latitude": "33.745472",
      "Value": 91
    },
    {
      "City": "Scottsdale",
      "Longitude": "-111.926048",
      "Latitude": "33.494171",
      "Value": 92
    },
    {
      "City": "Seattle",
      "Longitude": "-122.332069",
      "Latitude": "47.606209",
      "Value": 93
    },
    {
      "City": "Spokane",
      "Longitude": "-117.426048",
      "Latitude": "47.658779",
      "Value": 94
    },
    {
      "City": "St. Louis",
      "Longitude": "-90.199402",
      "Latitude": "38.627003",
      "Value": 95
    },
    {
      "City": "St. Petersburg",
      "Longitude": "-82.640289",
      "Latitude": "27.767601",
      "Value": 96
    },
    {
      "City": "Stockton",
      "Longitude": "-121.290779",
      "Latitude": "37.957703",
      "Value": 97
    },
    {
      "City": "Tampa",
      "Longitude": "-82.457176",
      "Latitude": "27.950575",
      "Value": 98
    },
    {
      "City": "Toledo",
      "Longitude": "-83.537865",
      "Latitude": "41.652805",
      "Value": 99
    },
    {
      "City": "Tucson",
      "Longitude": "-110.974709",
      "Latitude": "32.222607",
      "Value": 100
    },
    {
      "City": "Tuscon",
      "Longitude": "-110.974709",
      "Latitude": "32.222607",
      "Value": 101
    },
    {
      "City": "Tulsa",
      "Longitude": "-95.992775",
      "Latitude": "36.15398",
      "Value": 102
    },
    {
      "City": "Virginia Beach",
      "Longitude": "-75.977982",
      "Latitude": "36.852924",
      "Value": 103
    },
    {
      "City": "Wichita",
      "Longitude": "-97.330055",
      "Latitude": "37.687176",
      "Value": 104
    },
    {
      "City": "Winston Salem",
      "Longitude": "-80.244217",
      "Latitude": "36.099861",
      "Value": 105
    },
    {
      "City": "Winstonâ€“Salem",
      "Longitude": "-80.244217",
      "Latitude": "36.099861",
      "Value": 106
    }
  ],
  "geoType": "us",
  "geoBorderColor": "darkGray",
  "headerColor": "theme-blue",
  "showTitle": true,
  "showSidebar": true,
  "showDownloadButton": true,
  "showDownloadMediaButton": false,
  "displayAsHex": false,
  "displayStateLabels": false,
  "territoriesLabel": "Territories",
  "language": "en",
  "hasRegions": false,
  "expandDataTable": true,
  "fullBorder": false,
  "validated": 4.23,
  "version": "4.24.11"
}
