{
  "annotations": [],
  "general": {
    "geoType": "us-region",
    "type": "data",
    "noStateFoundMessage": "Map Unavailable",
    "annotationDropdownText": "Annotations",
    "geoBorderColor": "darkGray",
    "headerColor": "theme-blue",
    "title": "Small Multiples - US Regions by Pathogen",
    "showTitle": true,
    "showSidebar": true,
    "showDownloadButton": true,
    "showDownloadMediaButton": false,
    "displayAsHex": false,
    "displayStateLabels": false,
    "territoriesLabel": "Territories",
    "territoriesAlwaysShow": false,
    "language": "en",
    "geoLabelOverride": "",
    "hasRegions": false,
    "fullBorder": false,
    "convertFipsCodes": true,
    "palette": {
      "isReversed": false
    },
    "allowMapZoom": true,
    "hideGeoColumnInTooltip": false,
    "hidePrimaryColumnInTooltip": false,
    "statePicked": {
      "fipsCode": "01",
      "stateName": "Alabama"
    },
    "expandDataTable": false,
    "subtext": "Showing positivity rates by US region, tiled by pathogen type."
  },
  "type": "map",
  "color": "pinkpurple",
  "columns": {
    "geo": {
      "name": "State",
      "label": "Location",
      "tooltip": false,
      "dataTable": true
    },
    "primary": {
      "dataTable": true,
      "tooltip": true,
      "prefix": "",
      "suffix": "",
      "name": "Current Week Positivity",
      "label": "",
      "roundToPlace": 0
    },
    "navigate": {
      "name": ""
    },
    "latitude": {
      "name": ""
    },
    "longitude": {
      "name": ""
    }
  },
  "legend": {
    "descriptions": {},
    "specialClasses": [],
    "unified": false,
    "singleColumn": false,
    "singleRow": false,
    "verticalSorted": false,
    "showSpecialClassesLast": false,
    "dynamicDescription": false,
    "type": "equalnumber",
    "numberOfItems": 5,
    "position": "top",
    "title": "Positivity rate",
    "style": "gradient",
    "subStyle": "linear blocks",
    "tickRotation": "",
    "singleColumnLegend": false,
    "hideBorder": true,
    "groupBy": ""
  },
  "filters": [],
  "table": {
    "wrapColumns": false,
    "label": "Data Table",
    "expanded": false,
    "limitHeight": false,
    "height": "",
    "caption": "",
    "showDownloadUrl": false,
    "showDataTableLink": true,
    "showDownloadLinkBelow": true,
    "showFullGeoNameInCSV": false,
    "forceDisplay": true,
    "download": true,
    "indexLabel": ""
  },
  "tooltips": {
    "appearanceType": "hover",
    "linkLabel": "Learn More",
    "capitalizeLabels": true,
    "opacity": 90
  },
  "runtime": {
    "editorErrorMessage": []
  },
  "visual": {
    "minBubbleSize": 1,
    "maxBubbleSize": 20,
    "extraBubbleBorder": false,
    "cityStyle": "circle",
    "cityStyleLabel": "",
    "showBubbleZeros": false,
    "additionalCityStyles": [],
    "geoCodeCircleSize": 8
  },
  "mapPosition": {
    "coordinates": [0, 30],
    "zoom": 1
  },
  "map": {
    "layers": [],
    "patterns": []
  },
  "hexMap": {
    "type": "",
    "shapeGroups": [
      {
        "legendTitle": "",
        "legendDescription": "",
        "items": [
          {
            "key": "",
            "shape": "Arrow Up",
            "column": "",
            "operator": "=",
            "value": ""
          }
        ]
      }
    ]
  },
  "filterBehavior": "Filter Change",
  "datasets": {},
  "isResponsiveTicks": false,
  "barThickness": "0.37",
  "xAxis": {
    "type": "categorical",
    "size": 75,
    "maxTickRotation": 45,
    "labelOffset": 0
  },
  "data": [
    {
      "Current Week Positivity": "20",
      "State": "REGION 1",
      "Change": "0.2",
      "Pathogen": "COVID-19"
    },
    {
      "Current Week Positivity": "27",
      "State": "REGION 1",
      "Change": "0.5",
      "Pathogen": "Influenza"
    },
    {
      "Current Week Positivity": "14",
      "State": "REGION 1",
      "Change": "0",
      "Pathogen": "RSV"
    },
    {
      "Current Week Positivity": "30",
      "State": "REGION 1",
      "Change": "0.5",
      "Pathogen": "Measles"
    },
    {
      "Current Week Positivity": "27",
      "State": "region 2",
      "Change": "-0.5",
      "Pathogen": "COVID-19"
    },
    {
      "Current Week Positivity": "30",
      "State": "region 2",
      "Change": "1.5",
      "Pathogen": "Influenza"
    },
    {
      "Current Week Positivity": "27",
      "State": "region 2",
      "Change": "-1.2",
      "Pathogen": "RSV"
    },
    {
      "Current Week Positivity": "20",
      "State": "region 2",
      "Change": "0.05",
      "Pathogen": "Measles"
    },
    {
      "Current Week Positivity": "26",
      "State": "region 3",
      "Change": "-.08",
      "Pathogen": "COVID-19"
    },
    {
      "Current Week Positivity": "25",
      "State": "region 3",
      "Change": "-1.2",
      "Pathogen": "Influenza"
    },
    {
      "Current Week Positivity": "20",
      "State": "region 3",
      "Change": "0.8",
      "Pathogen": "RSV"
    },
    {
      "Current Week Positivity": "14",
      "State": "region 3",
      "Change": "-.08",
      "Pathogen": "Measles"
    },
    {
      "Current Week Positivity": "30",
      "State": "region 4",
      "Change": "0.8",
      "Pathogen": "COVID-19"
    },
    {
      "Current Week Positivity": "12",
      "State": "region 4",
      "Change": "-.08",
      "Pathogen": "Influenza"
    },
    {
      "Current Week Positivity": "14",
      "State": "region 4",
      "Change": "0.5",
      "Pathogen": "RSV"
    },
    {
      "Current Week Positivity": "12",
      "State": "region 4",
      "Change": "-0.5",
      "Pathogen": "Measles"
    },
    {
      "Current Week Positivity": "14",
      "State": "region 5",
      "Change": "0.5",
      "Pathogen": "COVID-19"
    },
    {
      "Current Week Positivity": "14",
      "State": "region 5",
      "Change": "0.05",
      "Pathogen": "Influenza"
    },
    {
      "Current Week Positivity": "0",
      "State": "region 5",
      "Change": "0.2",
      "Pathogen": "RSV"
    },
    {
      "Current Week Positivity": "27",
      "State": "region 5",
      "Change": "0.2",
      "Pathogen": "Measles"
    },
    {
      "Current Week Positivity": "25",
      "State": "region 6",
      "Change": "0.05",
      "Pathogen": "COVID-19"
    },
    {
      "Current Week Positivity": "0",
      "State": "region 6",
      "Change": "0.5",
      "Pathogen": "Influenza"
    },
    {
      "Current Week Positivity": "25",
      "State": "region 6",
      "Change": "0.5",
      "Pathogen": "RSV"
    },
    {
      "Current Week Positivity": "28",
      "State": "region 6",
      "Change": "0",
      "Pathogen": "Measles"
    },
    {
      "Current Week Positivity": "0",
      "State": "region 7",
      "Change": "0",
      "Pathogen": "COVID-19"
    },
    {
      "Current Week Positivity": "26",
      "State": "region 7",
      "Change": "-0.5",
      "Pathogen": "Influenza"
    },
    {
      "Current Week Positivity": "30",
      "State": "region 7",
      "Change": "0.05",
      "Pathogen": "RSV"
    },
    {
      "Current Week Positivity": "0",
      "State": "region 7",
      "Change": "0.8",
      "Pathogen": "Measles"
    },
    {
      "Current Week Positivity": "14",
      "State": "region 8",
      "Change": "-1.2",
      "Pathogen": "COVID-19"
    },
    {
      "Current Week Positivity": "14",
      "State": "region 8",
      "Change": "0.2",
      "Pathogen": "Influenza"
    },
    {
      "Current Week Positivity": "28",
      "State": "region 8",
      "Change": "1.5",
      "Pathogen": "RSV"
    },
    {
      "Current Week Positivity": "14",
      "State": "region 8",
      "Change": "1.5",
      "Pathogen": "Measles"
    },
    {
      "Current Week Positivity": "28",
      "State": "region 9",
      "Change": "1.5",
      "Pathogen": "COVID-19"
    },
    {
      "Current Week Positivity": "20",
      "State": "region 9",
      "Change": "0",
      "Pathogen": "Influenza"
    },
    {
      "Current Week Positivity": "12",
      "State": "region 9",
      "Change": "-0.5",
      "Pathogen": "RSV"
    },
    {
      "Current Week Positivity": "26",
      "State": "region 9",
      "Change": "-1.2",
      "Pathogen": "Measles"
    },
    {
      "Current Week Positivity": "12",
      "State": "region 10",
      "Change": "0.5",
      "Pathogen": "COVID-19"
    },
    {
      "Current Week Positivity": "28",
      "State": "region 10",
      "Change": "0.8",
      "Pathogen": "Influenza"
    },
    {
      "Current Week Positivity": "26",
      "State": "region 10",
      "Change": "-.08",
      "Pathogen": "RSV"
    },
    {
      "Current Week Positivity": "25",
      "State": "region 10",
      "Change": "0.5",
      "Pathogen": "Measles"
    }
  ],
  "dataFileName": "valid-region-data.json",
  "dataFileSourceType": "file",
  "formattedData": [
    {
      "Current Week Positivity": "20",
      "State": "REGION 1",
      "Change": "0.2",
      "Pathogen": "COVID-19"
    },
    {
      "Current Week Positivity": "27",
      "State": "REGION 1",
      "Change": "0.5",
      "Pathogen": "Influenza"
    },
    {
      "Current Week Positivity": "14",
      "State": "REGION 1",
      "Change": "0",
      "Pathogen": "RSV"
    },
    {
      "Current Week Positivity": "30",
      "State": "REGION 1",
      "Change": "0.5",
      "Pathogen": "Measles"
    },
    {
      "Current Week Positivity": "27",
      "State": "region 2",
      "Change": "-0.5",
      "Pathogen": "COVID-19"
    },
    {
      "Current Week Positivity": "30",
      "State": "region 2",
      "Change": "1.5",
      "Pathogen": "Influenza"
    },
    {
      "Current Week Positivity": "27",
      "State": "region 2",
      "Change": "-1.2",
      "Pathogen": "RSV"
    },
    {
      "Current Week Positivity": "20",
      "State": "region 2",
      "Change": "0.05",
      "Pathogen": "Measles"
    },
    {
      "Current Week Positivity": "26",
      "State": "region 3",
      "Change": "-.08",
      "Pathogen": "COVID-19"
    },
    {
      "Current Week Positivity": "25",
      "State": "region 3",
      "Change": "-1.2",
      "Pathogen": "Influenza"
    },
    {
      "Current Week Positivity": "20",
      "State": "region 3",
      "Change": "0.8",
      "Pathogen": "RSV"
    },
    {
      "Current Week Positivity": "14",
      "State": "region 3",
      "Change": "-.08",
      "Pathogen": "Measles"
    },
    {
      "Current Week Positivity": "30",
      "State": "region 4",
      "Change": "0.8",
      "Pathogen": "COVID-19"
    },
    {
      "Current Week Positivity": "12",
      "State": "region 4",
      "Change": "-.08",
      "Pathogen": "Influenza"
    },
    {
      "Current Week Positivity": "14",
      "State": "region 4",
      "Change": "0.5",
      "Pathogen": "RSV"
    },
    {
      "Current Week Positivity": "12",
      "State": "region 4",
      "Change": "-0.5",
      "Pathogen": "Measles"
    },
    {
      "Current Week Positivity": "14",
      "State": "region 5",
      "Change": "0.5",
      "Pathogen": "COVID-19"
    },
    {
      "Current Week Positivity": "14",
      "State": "region 5",
      "Change": "0.05",
      "Pathogen": "Influenza"
    },
    {
      "Current Week Positivity": "0",
      "State": "region 5",
      "Change": "0.2",
      "Pathogen": "RSV"
    },
    {
      "Current Week Positivity": "27",
      "State": "region 5",
      "Change": "0.2",
      "Pathogen": "Measles"
    },
    {
      "Current Week Positivity": "25",
      "State": "region 6",
      "Change": "0.05",
      "Pathogen": "COVID-19"
    },
    {
      "Current Week Positivity": "0",
      "State": "region 6",
      "Change": "0.5",
      "Pathogen": "Influenza"
    },
    {
      "Current Week Positivity": "25",
      "State": "region 6",
      "Change": "0.5",
      "Pathogen": "RSV"
    },
    {
      "Current Week Positivity": "28",
      "State": "region 6",
      "Change": "0",
      "Pathogen": "Measles"
    },
    {
      "Current Week Positivity": "0",
      "State": "region 7",
      "Change": "0",
      "Pathogen": "COVID-19"
    },
    {
      "Current Week Positivity": "26",
      "State": "region 7",
      "Change": "-0.5",
      "Pathogen": "Influenza"
    },
    {
      "Current Week Positivity": "30",
      "State": "region 7",
      "Change": "0.05",
      "Pathogen": "RSV"
    },
    {
      "Current Week Positivity": "0",
      "State": "region 7",
      "Change": "0.8",
      "Pathogen": "Measles"
    },
    {
      "Current Week Positivity": "14",
      "State": "region 8",
      "Change": "-1.2",
      "Pathogen": "COVID-19"
    },
    {
      "Current Week Positivity": "14",
      "State": "region 8",
      "Change": "0.2",
      "Pathogen": "Influenza"
    },
    {
      "Current Week Positivity": "28",
      "State": "region 8",
      "Change": "1.5",
      "Pathogen": "RSV"
    },
    {
      "Current Week Positivity": "14",
      "State": "region 8",
      "Change": "1.5",
      "Pathogen": "Measles"
    },
    {
      "Current Week Positivity": "28",
      "State": "region 9",
      "Change": "1.5",
      "Pathogen": "COVID-19"
    },
    {
      "Current Week Positivity": "20",
      "State": "region 9",
      "Change": "0",
      "Pathogen": "Influenza"
    },
    {
      "Current Week Positivity": "12",
      "State": "region 9",
      "Change": "-0.5",
      "Pathogen": "RSV"
    },
    {
      "Current Week Positivity": "26",
      "State": "region 9",
      "Change": "-1.2",
      "Pathogen": "Measles"
    },
    {
      "Current Week Positivity": "12",
      "State": "region 10",
      "Change": "0.5",
      "Pathogen": "COVID-19"
    },
    {
      "Current Week Positivity": "28",
      "State": "region 10",
      "Change": "0.8",
      "Pathogen": "Influenza"
    },
    {
      "Current Week Positivity": "26",
      "State": "region 10",
      "Change": "-.08",
      "Pathogen": "RSV"
    },
    {
      "Current Week Positivity": "25",
      "State": "region 10",
      "Change": "0.5",
      "Pathogen": "Measles"
    }
  ],
  "dataDescription": {
    "horizontal": false,
    "series": false
  },
  "version": "4.24.11",
  "smallMultiples": {
    "mode": "by-column",
    "tileColumn": "Pathogen",
    "tilesPerRowDesktop": 2,
    "tilesPerRowMobile": 1,
    "tileOrderType": "asc",
    "tileOrder": [],
    "tileTitles": {}
  }
}
