{"dashboard":{"theme":"theme-blue","sharedFilters":[{"key":"Dashboard Filter 1","values":["Alabama","Georgia","Florida"],"columnName":"state","showDropdown":true,"setBy":"chart1686086413980","usedBy":["map1686086427622"],"resetLabel":"Reset","active":"Florida"}]},"rows":[[{"width":12,"widget":"chart1686086413980"},{},{}],[{"width":12,"widget":"map1686086427622"},{"equalHeight":false},{},{}]],"visualizations":{"chart1686086413980":{"type":"chart","title":"","showTitle":true,"showDownloadMediaButton":false,"theme":"theme-blue","animate":false,"fontSize":"medium","lineDatapointStyle":"hover","barHasBorder":"false","isLollipopChart":false,"lollipopShape":"circle","lollipopColorStyle":"two-tone","visualizationSubType":"regular","barStyle":"","roundingStyle":"standard","tipRounding":"top","general":{"showDownloadButton":false},"padding":{"left":5,"right":5},"yAxis":{"hideAxis":false,"displayNumbersOnBar":false,"hideLabel":false,"hideTicks":false,"size":50,"gridLines":false,"enablePadding":false,"min":"","max":"","labelColor":"#333","tickLabelColor":"#333","tickColor":"#333","rightHideAxis":true,"rightAxisSize":50,"rightLabel":"","rightLabelOffsetSize":0,"rightAxisLabelColor":"#333","rightAxisTickLabelColor":"#333","rightAxisTickColor":"#333","numTicks":"","axisPadding":0,"tickRotation":0,"anchors":[]},"boxplot":{"plots":[],"borders":"true","firstQuartilePercentage":25,"thirdQuartilePercentage":75,"boxWidthPercentage":40,"plotOutlierValues":false,"plotNonOutlierValues":true,"legend":{"showHowToReadText":false,"howToReadText":""},"labels":{"q1":"Lower Quartile","q2":"q2","q3":"Upper Quartile","q4":"q4","minimum":"Minimum","maximum":"Maximum","mean":"Mean","median":"Median","sd":"Standard Deviation","iqr":"Interquartile Range","total":"Total","outliers":"Outliers","values":"Values","lowerBounds":"Lower Bounds","upperBounds":"Upper Bounds"}},"topAxis":{"hasLine":false},"isLegendValue":false,"barThickness":0.35,"barHeight":25,"barSpace":15,"heights":{"vertical":300,"horizontal":750},"xAxis":{"anchors":[],"type":"categorical","showTargetLabel":true,"targetLabel":"Target","hideAxis":false,"hideLabel":false,"hideTicks":false,"size":75,"tickRotation":0,"min":"","max":"","labelColor":"#333","tickLabelColor":"#333","tickColor":"#333","numTicks":"","labelOffset":65,"axisPadding":0,"target":0,"dataKey":"state","dateParseFormat":"%Y-%m-%d","dateDisplayFormat":"%Y-%m-%d"},"table":{"label":"Data Table","expanded":true,"limitHeight":false,"height":"","caption":"","showDownloadUrl":false,"showDataTableLink":true,"indexLabel":"","download":false,"showVertical":true,"show":false},"orientation":"vertical","color":"pinkpurple","columns":{},"legend":{"behavior":"isolate","singleRow":false,"colorCode":"","reverseLabelOrder":false,"description":"","dynamicLegend":false,"dynamicLegendDefaultText":"Show All","dynamicLegendItemLimit":5,"dynamicLegendItemLimitMessage":"Dynamic Legend Item Limit Hit.","dynamicLegendChartMessage":"Select Options from the Legend"},"exclusions":{"active":false,"keys":[]},"palette":"qualitative-bold","isPaletteReversed":false,"twoColor":{"palette":"monochrome-1","isPaletteReversed":false},"labels":false,"dataFormat":{"commas":false,"prefix":"","suffix":"","abbreviated":false,"bottomSuffix":"","bottomPrefix":"","bottomAbbreviated":false},"confidenceKeys":{},"visual":{"border":true,"accent":true,"background":true,"verticalHoverLine":false,"horizontalHoverLine":false},"useLogScale":false,"filterBehavior":"Filter Change","highlightedBarValues":[],"series":[{"dataKey":"Insured Rate","type":"Bar"}],"openModal":false,"uid":"chart1686086413980","visualizationType":"Bar","dataKey":"data-1.json","data":[{"Insured Rate":43,"date":"2022-01-02","state":"Alabama"},{"Insured Rate":53,"date":"2022-02-02","state":"Alabama"},{"Insured Rate":23,"date":"2022-03-02","state":"Alabama"},{"Insured Rate":13,"date":"2022-01-02","state":"Georgia"},{"Insured Rate":63,"date":"2022-02-02","state":"Georgia"},{"Insured Rate":40,"date":"2022-03-02","state":"Georgia"},{"Insured Rate":30,"date":"2022-01-02","state":"Florida"},{"Insured Rate":55,"date":"2022-02-02","state":"Florida"},{"Insured Rate":90,"date":"2022-03-02","state":"Florida"}],"dataDescription":{"horizontal":false,"series":false},"formattedData":[{"Insured Rate":43,"date":"2022-01-02","state":"Alabama"},{"Insured Rate":53,"date":"2022-02-02","state":"Alabama"},{"Insured Rate":23,"date":"2022-03-02","state":"Alabama"},{"Insured Rate":13,"date":"2022-01-02","state":"Georgia"},{"Insured Rate":63,"date":"2022-02-02","state":"Georgia"},{"Insured Rate":40,"date":"2022-03-02","state":"Georgia"},{"Insured Rate":30,"date":"2022-01-02","state":"Florida"},{"Insured Rate":55,"date":"2022-02-02","state":"Florida"},{"Insured Rate":90,"date":"2022-03-02","state":"Florida"}],"originalFormattedData":[{"Insured Rate":43,"date":"2022-01-02","state":"Alabama"},{"Insured Rate":53,"date":"2022-02-02","state":"Alabama"},{"Insured Rate":23,"date":"2022-03-02","state":"Alabama"},{"Insured Rate":13,"date":"2022-01-02","state":"Georgia"},{"Insured Rate":63,"date":"2022-02-02","state":"Georgia"},{"Insured Rate":40,"date":"2022-03-02","state":"Georgia"},{"Insured Rate":30,"date":"2022-01-02","state":"Florida"},{"Insured Rate":55,"date":"2022-02-02","state":"Florida"},{"Insured Rate":90,"date":"2022-03-02","state":"Florida"}]},"map1686086427622":{"general":{"geoType":"us","geoBorderColor":"darkGray","headerColor":"theme-blue","title":"","showTitle":true,"showSidebar":true,"showDownloadButton":false,"showDownloadMediaButton":false,"displayAsHex":false,"displayStateLabels":false,"territoriesLabel":"Territories","territoriesAlwaysShow":false,"language":"en","geoLabelOverride":"","hasRegions":false,"fullBorder":false,"type":"data","palette":{"isReversed":false},"allowMapZoom":true,"hideGeoColumnInTooltip":false,"hidePrimaryColumnInTooltip":false,"statePicked":{"fipsCode":"01","stateName":"Alabama"}},"type":"map","color":"pinkpurple","columns":{"geo":{"name":"state","label":"Location","tooltip":false,"dataTable":true},"primary":{"dataTable":true,"tooltip":true,"prefix":"","suffix":"","name":"Insured Rate","label":""},"navigate":{"name":""},"latitude":{"name":""},"longitude":{"name":""}},"legend":{"descriptions":{},"specialClasses":[],"unified":false,"singleColumn":false,"singleRow":false,"showSpecialClassesLast":false,"dynamicDescription":false,"type":"equalnumber","numberOfItems":3,"position":"side","title":"Legend"},"filters":[],"table":{"label":"Data Table","expanded":false,"limitHeight":false,"height":"","caption":"","showDownloadUrl":false,"showDataTableLink":true,"forceDisplay":true,"download":false,"indexLabel":""},"tooltips":{"appearanceType":"hover","linkLabel":"Learn More","capitalizeLabels":true},"runtime":{"editorErrorMessage":[]},"visual":{"minBubbleSize":1,"maxBubbleSize":20,"extraBubbleBorder":false,"cityStyle":"circle","geoCodeCircleSize":2,"showBubbleZeros":false},"mapPosition":{"coordinates":[0,30],"zoom":1},"map":{"layers":[]},"filterBehavior":"Filter Change","openModal":false,"uid":"map1686086427622","dataKey":"data-1.json","data":[{"Insured Rate":"43","date":"2022-01-02","state":"Alabama"},{"Insured Rate":"53","date":"2022-02-02","state":"Alabama"},{"Insured Rate":"23","date":"2022-03-02","state":"Alabama"},{"Insured Rate":"13","date":"2022-01-02","state":"Georgia"},{"Insured Rate":"63","date":"2022-02-02","state":"Georgia"},{"Insured Rate":"40","date":"2022-03-02","state":"Georgia"},{"Insured Rate":"30","date":"2022-01-02","state":"Florida"},{"Insured Rate":"55","date":"2022-02-02","state":"Florida"},{"Insured Rate":"90","date":"2022-03-02","state":"Florida"}],"dataDescription":{"horizontal":false,"series":false},"formattedData":[{"Insured Rate":43,"date":"2022-01-02","state":"Alabama"},{"Insured Rate":53,"date":"2022-02-02","state":"Alabama"},{"Insured Rate":23,"date":"2022-03-02","state":"Alabama"},{"Insured Rate":13,"date":"2022-01-02","state":"Georgia"},{"Insured Rate":63,"date":"2022-02-02","state":"Georgia"},{"Insured Rate":40,"date":"2022-03-02","state":"Georgia"},{"Insured Rate":30,"date":"2022-01-02","state":"Florida"},{"Insured Rate":55,"date":"2022-02-02","state":"Florida"},{"Insured Rate":90,"date":"2022-03-02","state":"Florida"}],"originalFormattedData":[{"Insured Rate":"43","date":"2022-01-02","state":"Alabama"},{"Insured Rate":"53","date":"2022-02-02","state":"Alabama"},{"Insured Rate":"23","date":"2022-03-02","state":"Alabama"},{"Insured Rate":"13","date":"2022-01-02","state":"Georgia"},{"Insured Rate":"63","date":"2022-02-02","state":"Georgia"},{"Insured Rate":"40","date":"2022-03-02","state":"Georgia"},{"Insured Rate":"30","date":"2022-01-02","state":"Florida"},{"Insured Rate":"55","date":"2022-02-02","state":"Florida"},{"Insured Rate":"90","date":"2022-03-02","state":"Florida"}]}},"table":{"label":"Data Table","show":true,"showDownloadUrl":false,"showVertical":true},"newViz":true,"datasets":{"data-1.json":{"data":[{"Insured Rate":43,"date":"2022-01-02","state":"Alabama"},{"Insured Rate":53,"date":"2022-02-02","state":"Alabama"},{"Insured Rate":23,"date":"2022-03-02","state":"Alabama"},{"Insured Rate":13,"date":"2022-01-02","state":"Georgia"},{"Insured Rate":63,"date":"2022-02-02","state":"Georgia"},{"Insured Rate":40,"date":"2022-03-02","state":"Georgia"},{"Insured Rate":30,"date":"2022-01-02","state":"Florida"},{"Insured Rate":55,"date":"2022-02-02","state":"Florida"},{"Insured Rate":90,"date":"2022-03-02","state":"Florida"}],"dataFileSize":758,"dataFileName":"data-1.json","dataFileSourceType":"file","dataFileFormat":"JSON","preview":false},"data-2.json":{"data":[{"Insured Rate":43,"state":"Alabama"},{"Insured Rate":63,"state":"Georgia"},{"Insured Rate":53,"state":"Florida"}],"dataFileSize":170,"dataFileName":"data-2.json","dataFileSourceType":"file","dataFileFormat":"JSON","preview":true}},"type":"dashboard","runtime":{},"uuid":1686086423805}