{
  "dashboard": {
    "theme": "theme-blue"
  },
  "rows": [
    [
      {
        "width": 12,
        "toggle": true,
        "widget": "map1708703168295"
      },
      {
        "width": 12,
        "toggle": true,
        "widget": "chart1708703345997"
      },
      {
        "width": 12,
        "toggle": true,
        "widget": "table1708703256246"
      }
    ]
  ],
  "visualizations": {
    "map1708703168295": {
      "general": {
        "geoType": "us",
        "geoBorderColor": "darkGray",
        "headerColor": "theme-blue",
        "title": "",
        "showTitle": true,
        "showSidebar": true,
        "showDownloadButton": false,
        "showDownloadMediaButton": false,
        "displayAsHex": false,
        "displayStateLabels": false,
        "territoriesLabel": "Territories",
        "territoriesAlwaysShow": false,
        "language": "en",
        "geoLabelOverride": "",
        "hasRegions": false,
        "fullBorder": false,
        "type": "data",
        "convertFipsCodes": true,
        "palette": {
          "isReversed": false
        },
        "allowMapZoom": true,
        "hideGeoColumnInTooltip": false,
        "hidePrimaryColumnInTooltip": false,
        "statePicked": {
          "fipsCode": "01",
          "stateName": "Alabama"
        }
      },
      "type": "map",
      "color": "pinkpurple",
      "columns": {
        "geo": {
          "name": "STATE",
          "label": "Location",
          "tooltip": false,
          "dataTable": true
        },
        "primary": {
          "dataTable": false,
          "tooltip": true,
          "prefix": "",
          "suffix": "",
          "name": "Rate",
          "label": ""
        },
        "navigate": {
          "name": ""
        },
        "latitude": {
          "name": ""
        },
        "longitude": {
          "name": ""
        }
      },
      "legend": {
        "descriptions": {},
        "specialClasses": [],
        "unified": false,
        "singleColumn": false,
        "singleRow": false,
        "verticalSorted": false,
        "showSpecialClassesLast": false,
        "dynamicDescription": false,
        "type": "equalnumber",
        "numberOfItems": 3,
        "position": "side",
        "title": "Legend"
      },
      "filters": [],
      "table": {
        "wrapColumns": false,
        "label": "Data Table",
        "expanded": false,
        "limitHeight": false,
        "height": "",
        "caption": "",
        "showDownloadUrl": false,
        "showDataTableLink": true,
        "showFullGeoNameInCSV": false,
        "forceDisplay": true,
        "download": false,
        "indexLabel": ""
      },
      "tooltips": {
        "appearanceType": "hover",
        "linkLabel": "Learn More",
        "capitalizeLabels": true,
        "opacity": 90
      },
      "runtime": {
        "editorErrorMessage": []
      },
      "visual": {
        "minBubbleSize": 1,
        "maxBubbleSize": 20,
        "extraBubbleBorder": false,
        "cityStyle": "circle",
        "geoCodeCircleSize": 2,
        "showBubbleZeros": false
      },
      "mapPosition": {
        "coordinates": [0, 30],
        "zoom": 1
      },
      "map": {
        "layers": [],
        "patterns": []
      },
      "hexMap": {
        "type": "",
        "shapeGroups": [
          {
            "legendTitle": "",
            "legendDescription": "",
            "items": [
              {
                "key": "",
                "shape": "Arrow up",
                "column": "",
                "operator": "=",
                "value": ""
              }
            ]
          }
        ]
      },
      "filterBehavior": "Filter Change",
      "openModal": false,
      "uid": "map1708703168295",
      "dataDescription": {
        "horizontal": false,
        "series": false
      },
      "formattedData": [
        {
          "STATE": "Overall",
          "Rate": "55",
          "Location": "Vehicle",
          "URL": "https://www.cdc.gov"
        },
        {
          "STATE": "Alabama",
          "Rate": "130",
          "Location": "Vehicle",
          "URL": "https://www.cdc.gov/"
        },
        {
          "STATE": "Alaska",
          "Rate": "40",
          "Location": "Work",
          "URL": "https://www.cdc.gov/"
        },
        {
          "STATE": "American Samoa",
          "Rate": "55",
          "Location": "Home",
          "URL": "https://www.cdc.gov/"
        },
        {
          "STATE": "Arizona",
          "Rate": "57",
          "Location": "School",
          "URL": "https://www.cdc.gov/"
        },
        {
          "STATE": "Arkansas",
          "Rate": "60",
          "Location": "School",
          "URL": "https://www.cdc.gov/"
        },
        {
          "STATE": "California",
          "Rate": "30",
          "Location": "Home",
          "URL": "https://www.cdc.gov/"
        },
        {
          "STATE": "Colorado",
          "Rate": "40",
          "Location": "Vehicle",
          "URL": "https://www.cdc.gov/"
        },
        {
          "STATE": "Connecticut",
          "Rate": "55",
          "Location": "Home",
          "URL": "https://www.cdc.gov/"
        },
        {
          "STATE": "Deleware",
          "Rate": "57",
          "Location": "Home",
          "URL": "https://www.cdc.gov/"
        },
        {
          "STATE": "DC",
          "Rate": "60",
          "Location": "Home",
          "URL": "https://www.cdc.gov/"
        },
        {
          "STATE": "Florida",
          "Rate": "30",
          "Location": "Work",
          "URL": "https://www.cdc.gov/"
        },
        {
          "STATE": "Georgia",
          "Rate": "40",
          "Location": "Work",
          "URL": "https://www.cdc.gov/"
        },
        {
          "STATE": "Guam",
          "Rate": "55",
          "Location": "Home",
          "URL": "https://www.cdc.gov/"
        },
        {
          "STATE": "Hawaii",
          "Rate": "57",
          "Location": "School",
          "URL": "https://www.cdc.gov/"
        },
        {
          "STATE": "Idaho",
          "Rate": "60",
          "Location": "School",
          "URL": "https://www.cdc.gov/"
        },
        {
          "STATE": "Illinois",
          "Rate": "30",
          "Location": "Work",
          "URL": "https://www.cdc.gov/"
        },
        {
          "STATE": "Indiana",
          "Rate": "40",
          "Location": "Vehicle",
          "URL": "https://www.cdc.gov/"
        },
        {
          "STATE": "Iowa",
          "Rate": "55",
          "Location": "Home",
          "URL": "https://www.cdc.gov/"
        },
        {
          "STATE": "Kansas",
          "Rate": "57",
          "Location": "Home",
          "URL": "https://www.cdc.gov/"
        },
        {
          "STATE": "Kentucky",
          "Rate": "60",
          "Location": "NA",
          "URL": "https://www.cdc.gov/"
        },
        {
          "STATE": "Louisiana",
          "Rate": "30",
          "Location": "Vehicle",
          "URL": "https://www.cdc.gov/"
        },
        {
          "STATE": "Maine",
          "Rate": "40",
          "Location": "Work",
          "URL": "https://www.cdc.gov/"
        },
        {
          "STATE": "Marshall Islands",
          "Rate": "55",
          "Location": "Home",
          "URL": "https://www.cdc.gov/"
        },
        {
          "STATE": "Maryland",
          "Rate": "57",
          "Location": "School",
          "URL": "https://www.cdc.gov/"
        },
        {
          "STATE": "Massachusetts",
          "Rate": "60",
          "Location": "School",
          "URL": "https://www.cdc.gov/"
        },
        {
          "STATE": "Michigan",
          "Rate": "12",
          "Location": "Work",
          "URL": "https://www.cdc.gov/"
        },
        {
          "STATE": "Micronesia",
          "Rate": "65",
          "Location": "Vehicle",
          "URL": "https://www.cdc.gov/"
        },
        {
          "STATE": "Minnesota",
          "Rate": "55",
          "Location": "Home",
          "URL": "https://www.cdc.gov/"
        },
        {
          "STATE": "Mississippi",
          "Rate": "57",
          "Location": "Home",
          "URL": "https://www.cdc.gov/"
        },
        {
          "STATE": "Montana",
          "Rate": "60",
          "Location": "Home",
          "URL": "https://www.cdc.gov/"
        },
        {
          "STATE": "Montana",
          "Rate": "30",
          "Location": "Vehicle",
          "URL": "https://www.cdc.gov/"
        },
        {
          "STATE": "Nebraska",
          "Rate": "40",
          "Location": "Work",
          "URL": "https://www.cdc.gov/"
        },
        {
          "STATE": "Nevada",
          "Rate": "55",
          "Location": "Home",
          "URL": "https://www.cdc.gov/"
        },
        {
          "STATE": "New Hampshire",
          "Rate": "57",
          "Location": "School",
          "URL": "https://www.cdc.gov/"
        },
        {
          "STATE": "New Jersey",
          "Rate": "60",
          "Location": "School",
          "URL": "https://www.cdc.gov/"
        },
        {
          "STATE": "New Mexico",
          "Rate": "12",
          "Location": "Work",
          "URL": "https://www.cdc.gov/"
        },
        {
          "STATE": "New York",
          "Rate": "40",
          "Location": "Vehicle",
          "URL": "https://www.cdc.gov/"
        },
        {
          "STATE": "North Carolina",
          "Rate": "55",
          "Location": "Home",
          "URL": "https://www.cdc.gov/"
        },
        {
          "STATE": "North Dakota",
          "Rate": "57",
          "Location": "Home",
          "URL": "https://www.cdc.gov/"
        },
        {
          "STATE": "Northern Mariana Islands",
          "Rate": "60",
          "Location": "Home",
          "URL": "https://www.cdc.gov/"
        },
        {
          "STATE": "Ohio",
          "Rate": "88",
          "Location": "Vehicle",
          "URL": "https://www.cdc.gov/"
        },
        {
          "STATE": "Oklahoma",
          "Rate": "40",
          "Location": "Work",
          "URL": "https://www.cdc.gov/"
        },
        {
          "STATE": "Oregon",
          "Rate": "55",
          "Location": "Home",
          "URL": "https://www.cdc.gov/"
        },
        {
          "STATE": "Palau",
          "Rate": "15",
          "Location": "School",
          "URL": "https://www.cdc.gov/"
        },
        {
          "STATE": "Pennsylvania",
          "Rate": "60",
          "Location": "School",
          "URL": "https://www.cdc.gov/"
        },
        {
          "STATE": "Puerto Rico",
          "Rate": "30",
          "Location": "Work",
          "URL": "https://www.cdc.gov/"
        },
        {
          "STATE": "Rhode Island",
          "Rate": "40",
          "Location": "Vehicle",
          "URL": "https://www.cdc.gov/"
        },
        {
          "STATE": "South Carolina",
          "Rate": "55",
          "Location": "Home",
          "URL": "https://www.cdc.gov/"
        },
        {
          "STATE": "South Dakota",
          "Rate": "86",
          "Location": "Home",
          "URL": "https://www.cdc.gov/"
        },
        {
          "STATE": "Tennessee",
          "Rate": "60",
          "Location": "Home",
          "URL": "https://www.cdc.gov/"
        },
        {
          "STATE": "Texas",
          "Rate": "30",
          "Location": "Vehicle",
          "URL": "https://www.cdc.gov/"
        },
        {
          "STATE": "Utah",
          "Rate": "54",
          "Location": "Work",
          "URL": "https://www.cdc.gov/"
        },
        {
          "STATE": "Vermont",
          "Rate": "40",
          "Location": "Home",
          "URL": "https://www.cdc.gov/"
        },
        {
          "STATE": "Virgin Islands",
          "Rate": "55",
          "Location": "School",
          "URL": "https://www.cdc.gov/"
        },
        {
          "STATE": "Virginia",
          "Rate": "57",
          "Location": "School",
          "URL": "https://www.cdc.gov/"
        },
        {
          "STATE": "Washington",
          "Rate": "62",
          "Location": "Work",
          "URL": "https://www.cdc.gov/"
        },
        {
          "STATE": "West Virginia",
          "Rate": "25",
          "Location": "Vehicle",
          "URL": "https://www.cdc.gov/"
        },
        {
          "STATE": "Wyoming",
          "Rate": "43",
          "Location": "Vehicle",
          "URL": "https://www.cdc.gov/"
        }
      ],
      "dataKey": "valid-data-map.csv",
      "data": [
        {
          "STATE": "Overall",
          "Rate": "55",
          "Location": "Vehicle",
          "URL": "https://www.cdc.gov"
        },
        {
          "STATE": "Alabama",
          "Rate": "130",
          "Location": "Vehicle",
          "URL": "https://www.cdc.gov/"
        },
        {
          "STATE": "Alaska",
          "Rate": "40",
          "Location": "Work",
          "URL": "https://www.cdc.gov/"
        },
        {
          "STATE": "American Samoa",
          "Rate": "55",
          "Location": "Home",
          "URL": "https://www.cdc.gov/"
        },
        {
          "STATE": "Arizona",
          "Rate": "57",
          "Location": "School",
          "URL": "https://www.cdc.gov/"
        },
        {
          "STATE": "Arkansas",
          "Rate": "60",
          "Location": "School",
          "URL": "https://www.cdc.gov/"
        },
        {
          "STATE": "California",
          "Rate": "30",
          "Location": "Home",
          "URL": "https://www.cdc.gov/"
        },
        {
          "STATE": "Colorado",
          "Rate": "40",
          "Location": "Vehicle",
          "URL": "https://www.cdc.gov/"
        },
        {
          "STATE": "Connecticut",
          "Rate": "55",
          "Location": "Home",
          "URL": "https://www.cdc.gov/"
        },
        {
          "STATE": "Deleware",
          "Rate": "57",
          "Location": "Home",
          "URL": "https://www.cdc.gov/"
        },
        {
          "STATE": "DC",
          "Rate": "60",
          "Location": "Home",
          "URL": "https://www.cdc.gov/"
        },
        {
          "STATE": "Florida",
          "Rate": "30",
          "Location": "Work",
          "URL": "https://www.cdc.gov/"
        },
        {
          "STATE": "Georgia",
          "Rate": "40",
          "Location": "Work",
          "URL": "https://www.cdc.gov/"
        },
        {
          "STATE": "Guam",
          "Rate": "55",
          "Location": "Home",
          "URL": "https://www.cdc.gov/"
        },
        {
          "STATE": "Hawaii",
          "Rate": "57",
          "Location": "School",
          "URL": "https://www.cdc.gov/"
        },
        {
          "STATE": "Idaho",
          "Rate": "60",
          "Location": "School",
          "URL": "https://www.cdc.gov/"
        },
        {
          "STATE": "Illinois",
          "Rate": "30",
          "Location": "Work",
          "URL": "https://www.cdc.gov/"
        },
        {
          "STATE": "Indiana",
          "Rate": "40",
          "Location": "Vehicle",
          "URL": "https://www.cdc.gov/"
        },
        {
          "STATE": "Iowa",
          "Rate": "55",
          "Location": "Home",
          "URL": "https://www.cdc.gov/"
        },
        {
          "STATE": "Kansas",
          "Rate": "57",
          "Location": "Home",
          "URL": "https://www.cdc.gov/"
        },
        {
          "STATE": "Kentucky",
          "Rate": "60",
          "Location": "NA",
          "URL": "https://www.cdc.gov/"
        },
        {
          "STATE": "Louisiana",
          "Rate": "30",
          "Location": "Vehicle",
          "URL": "https://www.cdc.gov/"
        },
        {
          "STATE": "Maine",
          "Rate": "40",
          "Location": "Work",
          "URL": "https://www.cdc.gov/"
        },
        {
          "STATE": "Marshall Islands",
          "Rate": "55",
          "Location": "Home",
          "URL": "https://www.cdc.gov/"
        },
        {
          "STATE": "Maryland",
          "Rate": "57",
          "Location": "School",
          "URL": "https://www.cdc.gov/"
        },
        {
          "STATE": "Massachusetts",
          "Rate": "60",
          "Location": "School",
          "URL": "https://www.cdc.gov/"
        },
        {
          "STATE": "Michigan",
          "Rate": "12",
          "Location": "Work",
          "URL": "https://www.cdc.gov/"
        },
        {
          "STATE": "Micronesia",
          "Rate": "65",
          "Location": "Vehicle",
          "URL": "https://www.cdc.gov/"
        },
        {
          "STATE": "Minnesota",
          "Rate": "55",
          "Location": "Home",
          "URL": "https://www.cdc.gov/"
        },
        {
          "STATE": "Mississippi",
          "Rate": "57",
          "Location": "Home",
          "URL": "https://www.cdc.gov/"
        },
        {
          "STATE": "Montana",
          "Rate": "60",
          "Location": "Home",
          "URL": "https://www.cdc.gov/"
        },
        {
          "STATE": "Montana",
          "Rate": "30",
          "Location": "Vehicle",
          "URL": "https://www.cdc.gov/"
        },
        {
          "STATE": "Nebraska",
          "Rate": "40",
          "Location": "Work",
          "URL": "https://www.cdc.gov/"
        },
        {
          "STATE": "Nevada",
          "Rate": "55",
          "Location": "Home",
          "URL": "https://www.cdc.gov/"
        },
        {
          "STATE": "New Hampshire",
          "Rate": "57",
          "Location": "School",
          "URL": "https://www.cdc.gov/"
        },
        {
          "STATE": "New Jersey",
          "Rate": "60",
          "Location": "School",
          "URL": "https://www.cdc.gov/"
        },
        {
          "STATE": "New Mexico",
          "Rate": "12",
          "Location": "Work",
          "URL": "https://www.cdc.gov/"
        },
        {
          "STATE": "New York",
          "Rate": "40",
          "Location": "Vehicle",
          "URL": "https://www.cdc.gov/"
        },
        {
          "STATE": "North Carolina",
          "Rate": "55",
          "Location": "Home",
          "URL": "https://www.cdc.gov/"
        },
        {
          "STATE": "North Dakota",
          "Rate": "57",
          "Location": "Home",
          "URL": "https://www.cdc.gov/"
        },
        {
          "STATE": "Northern Mariana Islands",
          "Rate": "60",
          "Location": "Home",
          "URL": "https://www.cdc.gov/"
        },
        {
          "STATE": "Ohio",
          "Rate": "88",
          "Location": "Vehicle",
          "URL": "https://www.cdc.gov/"
        },
        {
          "STATE": "Oklahoma",
          "Rate": "40",
          "Location": "Work",
          "URL": "https://www.cdc.gov/"
        },
        {
          "STATE": "Oregon",
          "Rate": "55",
          "Location": "Home",
          "URL": "https://www.cdc.gov/"
        },
        {
          "STATE": "Palau",
          "Rate": "15",
          "Location": "School",
          "URL": "https://www.cdc.gov/"
        },
        {
          "STATE": "Pennsylvania",
          "Rate": "60",
          "Location": "School",
          "URL": "https://www.cdc.gov/"
        },
        {
          "STATE": "Puerto Rico",
          "Rate": "30",
          "Location": "Work",
          "URL": "https://www.cdc.gov/"
        },
        {
          "STATE": "Rhode Island",
          "Rate": "40",
          "Location": "Vehicle",
          "URL": "https://www.cdc.gov/"
        },
        {
          "STATE": "South Carolina",
          "Rate": "55",
          "Location": "Home",
          "URL": "https://www.cdc.gov/"
        },
        {
          "STATE": "South Dakota",
          "Rate": "86",
          "Location": "Home",
          "URL": "https://www.cdc.gov/"
        },
        {
          "STATE": "Tennessee",
          "Rate": "60",
          "Location": "Home",
          "URL": "https://www.cdc.gov/"
        },
        {
          "STATE": "Texas",
          "Rate": "30",
          "Location": "Vehicle",
          "URL": "https://www.cdc.gov/"
        },
        {
          "STATE": "Utah",
          "Rate": "54",
          "Location": "Work",
          "URL": "https://www.cdc.gov/"
        },
        {
          "STATE": "Vermont",
          "Rate": "40",
          "Location": "Home",
          "URL": "https://www.cdc.gov/"
        },
        {
          "STATE": "Virgin Islands",
          "Rate": "55",
          "Location": "School",
          "URL": "https://www.cdc.gov/"
        },
        {
          "STATE": "Virginia",
          "Rate": "57",
          "Location": "School",
          "URL": "https://www.cdc.gov/"
        },
        {
          "STATE": "Washington",
          "Rate": "62",
          "Location": "Work",
          "URL": "https://www.cdc.gov/"
        },
        {
          "STATE": "West Virginia",
          "Rate": "25",
          "Location": "Vehicle",
          "URL": "https://www.cdc.gov/"
        },
        {
          "STATE": "Wyoming",
          "Rate": "43",
          "Location": "Vehicle",
          "URL": "https://www.cdc.gov/"
        }
      ],
      "editing": false,
      "originalFormattedData": [
        {
          "STATE": "Overall",
          "Rate": "55",
          "Location": "Vehicle",
          "URL": "https://www.cdc.gov"
        },
        {
          "STATE": "Alabama",
          "Rate": "130",
          "Location": "Vehicle",
          "URL": "https://www.cdc.gov/"
        },
        {
          "STATE": "Alaska",
          "Rate": "40",
          "Location": "Work",
          "URL": "https://www.cdc.gov/"
        },
        {
          "STATE": "American Samoa",
          "Rate": "55",
          "Location": "Home",
          "URL": "https://www.cdc.gov/"
        },
        {
          "STATE": "Arizona",
          "Rate": "57",
          "Location": "School",
          "URL": "https://www.cdc.gov/"
        },
        {
          "STATE": "Arkansas",
          "Rate": "60",
          "Location": "School",
          "URL": "https://www.cdc.gov/"
        },
        {
          "STATE": "California",
          "Rate": "30",
          "Location": "Home",
          "URL": "https://www.cdc.gov/"
        },
        {
          "STATE": "Colorado",
          "Rate": "40",
          "Location": "Vehicle",
          "URL": "https://www.cdc.gov/"
        },
        {
          "STATE": "Connecticut",
          "Rate": "55",
          "Location": "Home",
          "URL": "https://www.cdc.gov/"
        },
        {
          "STATE": "Deleware",
          "Rate": "57",
          "Location": "Home",
          "URL": "https://www.cdc.gov/"
        },
        {
          "STATE": "DC",
          "Rate": "60",
          "Location": "Home",
          "URL": "https://www.cdc.gov/"
        },
        {
          "STATE": "Florida",
          "Rate": "30",
          "Location": "Work",
          "URL": "https://www.cdc.gov/"
        },
        {
          "STATE": "Georgia",
          "Rate": "40",
          "Location": "Work",
          "URL": "https://www.cdc.gov/"
        },
        {
          "STATE": "Guam",
          "Rate": "55",
          "Location": "Home",
          "URL": "https://www.cdc.gov/"
        },
        {
          "STATE": "Hawaii",
          "Rate": "57",
          "Location": "School",
          "URL": "https://www.cdc.gov/"
        },
        {
          "STATE": "Idaho",
          "Rate": "60",
          "Location": "School",
          "URL": "https://www.cdc.gov/"
        },
        {
          "STATE": "Illinois",
          "Rate": "30",
          "Location": "Work",
          "URL": "https://www.cdc.gov/"
        },
        {
          "STATE": "Indiana",
          "Rate": "40",
          "Location": "Vehicle",
          "URL": "https://www.cdc.gov/"
        },
        {
          "STATE": "Iowa",
          "Rate": "55",
          "Location": "Home",
          "URL": "https://www.cdc.gov/"
        },
        {
          "STATE": "Kansas",
          "Rate": "57",
          "Location": "Home",
          "URL": "https://www.cdc.gov/"
        },
        {
          "STATE": "Kentucky",
          "Rate": "60",
          "Location": "NA",
          "URL": "https://www.cdc.gov/"
        },
        {
          "STATE": "Louisiana",
          "Rate": "30",
          "Location": "Vehicle",
          "URL": "https://www.cdc.gov/"
        },
        {
          "STATE": "Maine",
          "Rate": "40",
          "Location": "Work",
          "URL": "https://www.cdc.gov/"
        },
        {
          "STATE": "Marshall Islands",
          "Rate": "55",
          "Location": "Home",
          "URL": "https://www.cdc.gov/"
        },
        {
          "STATE": "Maryland",
          "Rate": "57",
          "Location": "School",
          "URL": "https://www.cdc.gov/"
        },
        {
          "STATE": "Massachusetts",
          "Rate": "60",
          "Location": "School",
          "URL": "https://www.cdc.gov/"
        },
        {
          "STATE": "Michigan",
          "Rate": "12",
          "Location": "Work",
          "URL": "https://www.cdc.gov/"
        },
        {
          "STATE": "Micronesia",
          "Rate": "65",
          "Location": "Vehicle",
          "URL": "https://www.cdc.gov/"
        },
        {
          "STATE": "Minnesota",
          "Rate": "55",
          "Location": "Home",
          "URL": "https://www.cdc.gov/"
        },
        {
          "STATE": "Mississippi",
          "Rate": "57",
          "Location": "Home",
          "URL": "https://www.cdc.gov/"
        },
        {
          "STATE": "Montana",
          "Rate": "60",
          "Location": "Home",
          "URL": "https://www.cdc.gov/"
        },
        {
          "STATE": "Montana",
          "Rate": "30",
          "Location": "Vehicle",
          "URL": "https://www.cdc.gov/"
        },
        {
          "STATE": "Nebraska",
          "Rate": "40",
          "Location": "Work",
          "URL": "https://www.cdc.gov/"
        },
        {
          "STATE": "Nevada",
          "Rate": "55",
          "Location": "Home",
          "URL": "https://www.cdc.gov/"
        },
        {
          "STATE": "New Hampshire",
          "Rate": "57",
          "Location": "School",
          "URL": "https://www.cdc.gov/"
        },
        {
          "STATE": "New Jersey",
          "Rate": "60",
          "Location": "School",
          "URL": "https://www.cdc.gov/"
        },
        {
          "STATE": "New Mexico",
          "Rate": "12",
          "Location": "Work",
          "URL": "https://www.cdc.gov/"
        },
        {
          "STATE": "New York",
          "Rate": "40",
          "Location": "Vehicle",
          "URL": "https://www.cdc.gov/"
        },
        {
          "STATE": "North Carolina",
          "Rate": "55",
          "Location": "Home",
          "URL": "https://www.cdc.gov/"
        },
        {
          "STATE": "North Dakota",
          "Rate": "57",
          "Location": "Home",
          "URL": "https://www.cdc.gov/"
        },
        {
          "STATE": "Northern Mariana Islands",
          "Rate": "60",
          "Location": "Home",
          "URL": "https://www.cdc.gov/"
        },
        {
          "STATE": "Ohio",
          "Rate": "88",
          "Location": "Vehicle",
          "URL": "https://www.cdc.gov/"
        },
        {
          "STATE": "Oklahoma",
          "Rate": "40",
          "Location": "Work",
          "URL": "https://www.cdc.gov/"
        },
        {
          "STATE": "Oregon",
          "Rate": "55",
          "Location": "Home",
          "URL": "https://www.cdc.gov/"
        },
        {
          "STATE": "Palau",
          "Rate": "15",
          "Location": "School",
          "URL": "https://www.cdc.gov/"
        },
        {
          "STATE": "Pennsylvania",
          "Rate": "60",
          "Location": "School",
          "URL": "https://www.cdc.gov/"
        },
        {
          "STATE": "Puerto Rico",
          "Rate": "30",
          "Location": "Work",
          "URL": "https://www.cdc.gov/"
        },
        {
          "STATE": "Rhode Island",
          "Rate": "40",
          "Location": "Vehicle",
          "URL": "https://www.cdc.gov/"
        },
        {
          "STATE": "South Carolina",
          "Rate": "55",
          "Location": "Home",
          "URL": "https://www.cdc.gov/"
        },
        {
          "STATE": "South Dakota",
          "Rate": "86",
          "Location": "Home",
          "URL": "https://www.cdc.gov/"
        },
        {
          "STATE": "Tennessee",
          "Rate": "60",
          "Location": "Home",
          "URL": "https://www.cdc.gov/"
        },
        {
          "STATE": "Texas",
          "Rate": "30",
          "Location": "Vehicle",
          "URL": "https://www.cdc.gov/"
        },
        {
          "STATE": "Utah",
          "Rate": "54",
          "Location": "Work",
          "URL": "https://www.cdc.gov/"
        },
        {
          "STATE": "Vermont",
          "Rate": "40",
          "Location": "Home",
          "URL": "https://www.cdc.gov/"
        },
        {
          "STATE": "Virgin Islands",
          "Rate": "55",
          "Location": "School",
          "URL": "https://www.cdc.gov/"
        },
        {
          "STATE": "Virginia",
          "Rate": "57",
          "Location": "School",
          "URL": "https://www.cdc.gov/"
        },
        {
          "STATE": "Washington",
          "Rate": "62",
          "Location": "Work",
          "URL": "https://www.cdc.gov/"
        },
        {
          "STATE": "West Virginia",
          "Rate": "25",
          "Location": "Vehicle",
          "URL": "https://www.cdc.gov/"
        },
        {
          "STATE": "Wyoming",
          "Rate": "43",
          "Location": "Vehicle",
          "URL": "https://www.cdc.gov/"
        }
      ],
      "validated": 4.23
    },
    "table1708703256246": {
      "newViz": false,
      "openModal": false,
      "uid": "table1708703256246",
      "type": "table",
      "table": {
        "label": "Data Table",
        "show": true,
        "showDownloadUrl": false,
        "showVertical": true,
        "expanded": true
      },
      "columns": {},
      "dataFormat": {},
      "visualizationType": "table",
      "dataDescription": {
        "horizontal": false,
        "series": false
      },
      "formattedData": [
        {
          "STATE": "Overall",
          "Rate": "55",
          "Location": "Vehicle",
          "URL": "https://www.cdc.gov"
        },
        {
          "STATE": "Alabama",
          "Rate": 130,
          "Location": "Vehicle",
          "URL": "https://www.cdc.gov/"
        },
        {
          "STATE": "Alaska",
          "Rate": 40,
          "Location": "Work",
          "URL": "https://www.cdc.gov/"
        },
        {
          "STATE": "American Samoa",
          "Rate": 55,
          "Location": "Home",
          "URL": "https://www.cdc.gov/"
        },
        {
          "STATE": "Arizona",
          "Rate": 57,
          "Location": "School",
          "URL": "https://www.cdc.gov/"
        },
        {
          "STATE": "Arkansas",
          "Rate": 60,
          "Location": "School",
          "URL": "https://www.cdc.gov/"
        },
        {
          "STATE": "California",
          "Rate": 30,
          "Location": "Home",
          "URL": "https://www.cdc.gov/"
        },
        {
          "STATE": "Colorado",
          "Rate": 40,
          "Location": "Vehicle",
          "URL": "https://www.cdc.gov/"
        },
        {
          "STATE": "Connecticut",
          "Rate": 55,
          "Location": "Home",
          "URL": "https://www.cdc.gov/"
        },
        {
          "STATE": "Deleware",
          "Rate": "57",
          "Location": "Home",
          "URL": "https://www.cdc.gov/"
        },
        {
          "STATE": "DC",
          "Rate": 60,
          "Location": "Home",
          "URL": "https://www.cdc.gov/"
        },
        {
          "STATE": "Florida",
          "Rate": 30,
          "Location": "Work",
          "URL": "https://www.cdc.gov/"
        },
        {
          "STATE": "Georgia",
          "Rate": 40,
          "Location": "Work",
          "URL": "https://www.cdc.gov/"
        },
        {
          "STATE": "Guam",
          "Rate": 55,
          "Location": "Home",
          "URL": "https://www.cdc.gov/"
        },
        {
          "STATE": "Hawaii",
          "Rate": 57,
          "Location": "School",
          "URL": "https://www.cdc.gov/"
        },
        {
          "STATE": "Idaho",
          "Rate": 60,
          "Location": "School",
          "URL": "https://www.cdc.gov/"
        },
        {
          "STATE": "Illinois",
          "Rate": 30,
          "Location": "Work",
          "URL": "https://www.cdc.gov/"
        },
        {
          "STATE": "Indiana",
          "Rate": 40,
          "Location": "Vehicle",
          "URL": "https://www.cdc.gov/"
        },
        {
          "STATE": "Iowa",
          "Rate": 55,
          "Location": "Home",
          "URL": "https://www.cdc.gov/"
        },
        {
          "STATE": "Kansas",
          "Rate": 57,
          "Location": "Home",
          "URL": "https://www.cdc.gov/"
        },
        {
          "STATE": "Kentucky",
          "Rate": 60,
          "Location": "NA",
          "URL": "https://www.cdc.gov/"
        },
        {
          "STATE": "Louisiana",
          "Rate": 30,
          "Location": "Vehicle",
          "URL": "https://www.cdc.gov/"
        },
        {
          "STATE": "Maine",
          "Rate": 40,
          "Location": "Work",
          "URL": "https://www.cdc.gov/"
        },
        {
          "STATE": "Marshall Islands",
          "Rate": 55,
          "Location": "Home",
          "URL": "https://www.cdc.gov/"
        },
        {
          "STATE": "Maryland",
          "Rate": 57,
          "Location": "School",
          "URL": "https://www.cdc.gov/"
        },
        {
          "STATE": "Massachusetts",
          "Rate": 60,
          "Location": "School",
          "URL": "https://www.cdc.gov/"
        },
        {
          "STATE": "Michigan",
          "Rate": 12,
          "Location": "Work",
          "URL": "https://www.cdc.gov/"
        },
        {
          "STATE": "Micronesia",
          "Rate": 65,
          "Location": "Vehicle",
          "URL": "https://www.cdc.gov/"
        },
        {
          "STATE": "Minnesota",
          "Rate": 55,
          "Location": "Home",
          "URL": "https://www.cdc.gov/"
        },
        {
          "STATE": "Mississippi",
          "Rate": 57,
          "Location": "Home",
          "URL": "https://www.cdc.gov/"
        },
        {
          "STATE": "Montana",
          "Rate": 60,
          "Location": "Home",
          "URL": "https://www.cdc.gov/"
        },
        {
          "STATE": "Montana",
          "Rate": 30,
          "Location": "Vehicle",
          "URL": "https://www.cdc.gov/"
        },
        {
          "STATE": "Nebraska",
          "Rate": 40,
          "Location": "Work",
          "URL": "https://www.cdc.gov/"
        },
        {
          "STATE": "Nevada",
          "Rate": 55,
          "Location": "Home",
          "URL": "https://www.cdc.gov/"
        },
        {
          "STATE": "New Hampshire",
          "Rate": 57,
          "Location": "School",
          "URL": "https://www.cdc.gov/"
        },
        {
          "STATE": "New Jersey",
          "Rate": 60,
          "Location": "School",
          "URL": "https://www.cdc.gov/"
        },
        {
          "STATE": "New Mexico",
          "Rate": 12,
          "Location": "Work",
          "URL": "https://www.cdc.gov/"
        },
        {
          "STATE": "New York",
          "Rate": 40,
          "Location": "Vehicle",
          "URL": "https://www.cdc.gov/"
        },
        {
          "STATE": "North Carolina",
          "Rate": 55,
          "Location": "Home",
          "URL": "https://www.cdc.gov/"
        },
        {
          "STATE": "North Dakota",
          "Rate": 57,
          "Location": "Home",
          "URL": "https://www.cdc.gov/"
        },
        {
          "STATE": "Northern Mariana Islands",
          "Rate": "60",
          "Location": "Home",
          "URL": "https://www.cdc.gov/"
        },
        {
          "STATE": "Ohio",
          "Rate": 88,
          "Location": "Vehicle",
          "URL": "https://www.cdc.gov/"
        },
        {
          "STATE": "Oklahoma",
          "Rate": 40,
          "Location": "Work",
          "URL": "https://www.cdc.gov/"
        },
        {
          "STATE": "Oregon",
          "Rate": 55,
          "Location": "Home",
          "URL": "https://www.cdc.gov/"
        },
        {
          "STATE": "Palau",
          "Rate": 15,
          "Location": "School",
          "URL": "https://www.cdc.gov/"
        },
        {
          "STATE": "Pennsylvania",
          "Rate": 60,
          "Location": "School",
          "URL": "https://www.cdc.gov/"
        },
        {
          "STATE": "Puerto Rico",
          "Rate": 30,
          "Location": "Work",
          "URL": "https://www.cdc.gov/"
        },
        {
          "STATE": "Rhode Island",
          "Rate": 40,
          "Location": "Vehicle",
          "URL": "https://www.cdc.gov/"
        },
        {
          "STATE": "South Carolina",
          "Rate": 55,
          "Location": "Home",
          "URL": "https://www.cdc.gov/"
        },
        {
          "STATE": "South Dakota",
          "Rate": 86,
          "Location": "Home",
          "URL": "https://www.cdc.gov/"
        },
        {
          "STATE": "Tennessee",
          "Rate": 60,
          "Location": "Home",
          "URL": "https://www.cdc.gov/"
        },
        {
          "STATE": "Texas",
          "Rate": 30,
          "Location": "Vehicle",
          "URL": "https://www.cdc.gov/"
        },
        {
          "STATE": "Utah",
          "Rate": 54,
          "Location": "Work",
          "URL": "https://www.cdc.gov/"
        },
        {
          "STATE": "Vermont",
          "Rate": 40,
          "Location": "Home",
          "URL": "https://www.cdc.gov/"
        },
        {
          "STATE": "Virgin Islands",
          "Rate": 55,
          "Location": "School",
          "URL": "https://www.cdc.gov/"
        },
        {
          "STATE": "Virginia",
          "Rate": 57,
          "Location": "School",
          "URL": "https://www.cdc.gov/"
        },
        {
          "STATE": "Washington",
          "Rate": 62,
          "Location": "Work",
          "URL": "https://www.cdc.gov/"
        },
        {
          "STATE": "West Virginia",
          "Rate": 25,
          "Location": "Vehicle",
          "URL": "https://www.cdc.gov/"
        },
        {
          "STATE": "Wyoming",
          "Rate": 43,
          "Location": "Vehicle",
          "URL": "https://www.cdc.gov/"
        }
      ],
      "dataKey": "valid-data-map.csv",
      "data": [
        {
          "STATE": "Overall",
          "Rate": "55",
          "Location": "Vehicle",
          "URL": "https://www.cdc.gov"
        },
        {
          "STATE": "Alabama",
          "Rate": 130,
          "Location": "Vehicle",
          "URL": "https://www.cdc.gov/"
        },
        {
          "STATE": "Alaska",
          "Rate": 40,
          "Location": "Work",
          "URL": "https://www.cdc.gov/"
        },
        {
          "STATE": "American Samoa",
          "Rate": 55,
          "Location": "Home",
          "URL": "https://www.cdc.gov/"
        },
        {
          "STATE": "Arizona",
          "Rate": 57,
          "Location": "School",
          "URL": "https://www.cdc.gov/"
        },
        {
          "STATE": "Arkansas",
          "Rate": 60,
          "Location": "School",
          "URL": "https://www.cdc.gov/"
        },
        {
          "STATE": "California",
          "Rate": 30,
          "Location": "Home",
          "URL": "https://www.cdc.gov/"
        },
        {
          "STATE": "Colorado",
          "Rate": 40,
          "Location": "Vehicle",
          "URL": "https://www.cdc.gov/"
        },
        {
          "STATE": "Connecticut",
          "Rate": 55,
          "Location": "Home",
          "URL": "https://www.cdc.gov/"
        },
        {
          "STATE": "Deleware",
          "Rate": "57",
          "Location": "Home",
          "URL": "https://www.cdc.gov/"
        },
        {
          "STATE": "DC",
          "Rate": 60,
          "Location": "Home",
          "URL": "https://www.cdc.gov/"
        },
        {
          "STATE": "Florida",
          "Rate": 30,
          "Location": "Work",
          "URL": "https://www.cdc.gov/"
        },
        {
          "STATE": "Georgia",
          "Rate": 40,
          "Location": "Work",
          "URL": "https://www.cdc.gov/"
        },
        {
          "STATE": "Guam",
          "Rate": 55,
          "Location": "Home",
          "URL": "https://www.cdc.gov/"
        },
        {
          "STATE": "Hawaii",
          "Rate": 57,
          "Location": "School",
          "URL": "https://www.cdc.gov/"
        },
        {
          "STATE": "Idaho",
          "Rate": 60,
          "Location": "School",
          "URL": "https://www.cdc.gov/"
        },
        {
          "STATE": "Illinois",
          "Rate": 30,
          "Location": "Work",
          "URL": "https://www.cdc.gov/"
        },
        {
          "STATE": "Indiana",
          "Rate": 40,
          "Location": "Vehicle",
          "URL": "https://www.cdc.gov/"
        },
        {
          "STATE": "Iowa",
          "Rate": 55,
          "Location": "Home",
          "URL": "https://www.cdc.gov/"
        },
        {
          "STATE": "Kansas",
          "Rate": 57,
          "Location": "Home",
          "URL": "https://www.cdc.gov/"
        },
        {
          "STATE": "Kentucky",
          "Rate": 60,
          "Location": "NA",
          "URL": "https://www.cdc.gov/"
        },
        {
          "STATE": "Louisiana",
          "Rate": 30,
          "Location": "Vehicle",
          "URL": "https://www.cdc.gov/"
        },
        {
          "STATE": "Maine",
          "Rate": 40,
          "Location": "Work",
          "URL": "https://www.cdc.gov/"
        },
        {
          "STATE": "Marshall Islands",
          "Rate": 55,
          "Location": "Home",
          "URL": "https://www.cdc.gov/"
        },
        {
          "STATE": "Maryland",
          "Rate": 57,
          "Location": "School",
          "URL": "https://www.cdc.gov/"
        },
        {
          "STATE": "Massachusetts",
          "Rate": 60,
          "Location": "School",
          "URL": "https://www.cdc.gov/"
        },
        {
          "STATE": "Michigan",
          "Rate": 12,
          "Location": "Work",
          "URL": "https://www.cdc.gov/"
        },
        {
          "STATE": "Micronesia",
          "Rate": 65,
          "Location": "Vehicle",
          "URL": "https://www.cdc.gov/"
        },
        {
          "STATE": "Minnesota",
          "Rate": 55,
          "Location": "Home",
          "URL": "https://www.cdc.gov/"
        },
        {
          "STATE": "Mississippi",
          "Rate": 57,
          "Location": "Home",
          "URL": "https://www.cdc.gov/"
        },
        {
          "STATE": "Montana",
          "Rate": 60,
          "Location": "Home",
          "URL": "https://www.cdc.gov/"
        },
        {
          "STATE": "Montana",
          "Rate": 30,
          "Location": "Vehicle",
          "URL": "https://www.cdc.gov/"
        },
        {
          "STATE": "Nebraska",
          "Rate": 40,
          "Location": "Work",
          "URL": "https://www.cdc.gov/"
        },
        {
          "STATE": "Nevada",
          "Rate": 55,
          "Location": "Home",
          "URL": "https://www.cdc.gov/"
        },
        {
          "STATE": "New Hampshire",
          "Rate": 57,
          "Location": "School",
          "URL": "https://www.cdc.gov/"
        },
        {
          "STATE": "New Jersey",
          "Rate": 60,
          "Location": "School",
          "URL": "https://www.cdc.gov/"
        },
        {
          "STATE": "New Mexico",
          "Rate": 12,
          "Location": "Work",
          "URL": "https://www.cdc.gov/"
        },
        {
          "STATE": "New York",
          "Rate": 40,
          "Location": "Vehicle",
          "URL": "https://www.cdc.gov/"
        },
        {
          "STATE": "North Carolina",
          "Rate": 55,
          "Location": "Home",
          "URL": "https://www.cdc.gov/"
        },
        {
          "STATE": "North Dakota",
          "Rate": 57,
          "Location": "Home",
          "URL": "https://www.cdc.gov/"
        },
        {
          "STATE": "Northern Mariana Islands",
          "Rate": "60",
          "Location": "Home",
          "URL": "https://www.cdc.gov/"
        },
        {
          "STATE": "Ohio",
          "Rate": 88,
          "Location": "Vehicle",
          "URL": "https://www.cdc.gov/"
        },
        {
          "STATE": "Oklahoma",
          "Rate": 40,
          "Location": "Work",
          "URL": "https://www.cdc.gov/"
        },
        {
          "STATE": "Oregon",
          "Rate": 55,
          "Location": "Home",
          "URL": "https://www.cdc.gov/"
        },
        {
          "STATE": "Palau",
          "Rate": 15,
          "Location": "School",
          "URL": "https://www.cdc.gov/"
        },
        {
          "STATE": "Pennsylvania",
          "Rate": 60,
          "Location": "School",
          "URL": "https://www.cdc.gov/"
        },
        {
          "STATE": "Puerto Rico",
          "Rate": 30,
          "Location": "Work",
          "URL": "https://www.cdc.gov/"
        },
        {
          "STATE": "Rhode Island",
          "Rate": 40,
          "Location": "Vehicle",
          "URL": "https://www.cdc.gov/"
        },
        {
          "STATE": "South Carolina",
          "Rate": 55,
          "Location": "Home",
          "URL": "https://www.cdc.gov/"
        },
        {
          "STATE": "South Dakota",
          "Rate": 86,
          "Location": "Home",
          "URL": "https://www.cdc.gov/"
        },
        {
          "STATE": "Tennessee",
          "Rate": 60,
          "Location": "Home",
          "URL": "https://www.cdc.gov/"
        },
        {
          "STATE": "Texas",
          "Rate": 30,
          "Location": "Vehicle",
          "URL": "https://www.cdc.gov/"
        },
        {
          "STATE": "Utah",
          "Rate": 54,
          "Location": "Work",
          "URL": "https://www.cdc.gov/"
        },
        {
          "STATE": "Vermont",
          "Rate": 40,
          "Location": "Home",
          "URL": "https://www.cdc.gov/"
        },
        {
          "STATE": "Virgin Islands",
          "Rate": 55,
          "Location": "School",
          "URL": "https://www.cdc.gov/"
        },
        {
          "STATE": "Virginia",
          "Rate": 57,
          "Location": "School",
          "URL": "https://www.cdc.gov/"
        },
        {
          "STATE": "Washington",
          "Rate": 62,
          "Location": "Work",
          "URL": "https://www.cdc.gov/"
        },
        {
          "STATE": "West Virginia",
          "Rate": 25,
          "Location": "Vehicle",
          "URL": "https://www.cdc.gov/"
        },
        {
          "STATE": "Wyoming",
          "Rate": 43,
          "Location": "Vehicle",
          "URL": "https://www.cdc.gov/"
        }
      ],
      "editing": false
    },
    "chart1708703345997": {
      "type": "chart",
      "debugSvg": false,
      "chartMessage": {
        "noData": "No Data Available"
      },
      "title": "",
      "showTitle": true,
      "showDownloadMediaButton": false,
      "theme": "theme-blue",
      "animate": false,
      "fontSize": "medium",
      "lineDatapointStyle": "hover",
      "lineDatapointColor": "Same as Line",
      "barHasBorder": "false",
      "isLollipopChart": false,
      "lollipopShape": "circle",
      "lollipopColorStyle": "two-tone",
      "visualizationSubType": "regular",
      "barStyle": "",
      "roundingStyle": "standard",
      "tipRounding": "top",
      "isResponsiveTicks": false,
      "general": {
        "showDownloadButton": false
      },
      "padding": {
        "left": 5,
        "right": 5
      },
      "suppressedData": [],
      "preliminaryData": [],
      "yAxis": {
        "hideAxis": false,
        "displayNumbersOnBar": false,
        "hideLabel": false,
        "hideTicks": false,
        "size": 50,
        "gridLines": false,
        "enablePadding": false,
        "min": "",
        "max": "",
        "labelColor": "#333",
        "tickLabelColor": "#333",
        "tickColor": "#333",
        "rightHideAxis": true,
        "rightAxisSize": 0,
        "rightLabel": "",
        "rightLabelOffsetSize": 0,
        "rightAxisLabelColor": "#333",
        "rightAxisTickLabelColor": "#333",
        "rightAxisTickColor": "#333",
        "numTicks": "",
        "axisPadding": 0,
        "scalePadding": 10,
        "tickRotation": 0,
        "anchors": []
      },
      "boxplot": {
        "plots": [],
        "borders": "true",
        "firstQuartilePercentage": 25,
        "thirdQuartilePercentage": 75,
        "boxWidthPercentage": 40,
        "plotOutlierValues": false,
        "plotNonOutlierValues": true,
        "legend": {
          "showHowToReadText": false,
          "howToReadText": ""
        },
        "labels": {
          "q1": "Lower Quartile",
          "q2": "q2",
          "q3": "Upper Quartile",
          "q4": "q4",
          "minimum": "Minimum",
          "maximum": "Maximum",
          "mean": "Mean",
          "median": "Median",
          "sd": "Standard Deviation",
          "iqr": "Interquartile Range",
          "total": "Total",
          "outliers": "Outliers",
          "values": "Values",
          "lowerBounds": "Lower Bounds",
          "upperBounds": "Upper Bounds"
        }
      },
      "topAxis": {
        "hasLine": false
      },
      "isLegendValue": false,
      "barThickness": 0.35,
      "barHeight": 25,
      "barSpace": 15,
      "heights": {
        "vertical": 300,
        "horizontal": 750
      },
      "xAxis": {
        "sortDates": false,
        "anchors": [],
        "type": "categorical",
        "showTargetLabel": true,
        "targetLabel": "Target",
        "hideAxis": false,
        "hideLabel": false,
        "hideTicks": false,
        "size": 75,
        "tickRotation": 0,
        "min": "",
        "max": "",
        "labelColor": "#333",
        "tickLabelColor": "#333",
        "tickColor": "#333",
        "numTicks": "",
        "labelOffset": 65,
        "axisPadding": 0,
        "target": 0,
        "maxTickRotation": 0,
        "dataKey": "Location",
        "tickWidthMax": 59
      },
      "table": {
        "label": "Data Table",
        "expanded": true,
        "limitHeight": false,
        "height": "",
        "caption": "",
        "showDownloadUrl": false,
        "showDataTableLink": true,
        "indexLabel": "",
        "download": false,
        "showVertical": true,
        "dateDisplayFormat": "",
        "show": false
      },
      "orientation": "vertical",
      "color": "pinkpurple",
      "columns": {},
      "legend": {
        "hide": false,
        "behavior": "isolate",
        "singleRow": true,
        "colorCode": "",
        "reverseLabelOrder": false,
        "description": "",
        "dynamicLegend": false,
        "dynamicLegendDefaultText": "Show All",
        "dynamicLegendItemLimit": 5,
        "dynamicLegendItemLimitMessage": "Dynamic Legend Item Limit Hit.",
        "dynamicLegendChartMessage": "Select Options from the Legend",
        "lineMode": false,
        "verticalSorted": false,
        "highlightOnHover": false
      },
      "brush": {
        "height": 25,
        "data": [
          {
            "STATE": "",
            "Rate": "55",
            "Location": "Vehicle",
            "URL": ""
          },
          {
            "STATE": "",
            "Rate": 130,
            "Location": "Vehicle",
            "URL": ""
          },
          {
            "STATE": "",
            "Rate": 40,
            "Location": "Work",
            "URL": ""
          },
          {
            "STATE": "",
            "Rate": 55,
            "Location": "Home",
            "URL": ""
          },
          {
            "STATE": "",
            "Rate": 57,
            "Location": "School",
            "URL": ""
          },
          {
            "STATE": "",
            "Rate": 60,
            "Location": "School",
            "URL": ""
          },
          {
            "STATE": "",
            "Rate": 30,
            "Location": "Home",
            "URL": ""
          },
          {
            "STATE": "",
            "Rate": 40,
            "Location": "Vehicle",
            "URL": ""
          },
          {
            "STATE": "",
            "Rate": 55,
            "Location": "Home",
            "URL": ""
          },
          {
            "STATE": "",
            "Rate": "57",
            "Location": "Home",
            "URL": ""
          },
          {
            "STATE": "",
            "Rate": 60,
            "Location": "Home",
            "URL": ""
          },
          {
            "STATE": "",
            "Rate": 30,
            "Location": "Work",
            "URL": ""
          },
          {
            "STATE": "",
            "Rate": 40,
            "Location": "Work",
            "URL": ""
          },
          {
            "STATE": "",
            "Rate": 55,
            "Location": "Home",
            "URL": ""
          },
          {
            "STATE": "",
            "Rate": 57,
            "Location": "School",
            "URL": ""
          },
          {
            "STATE": "",
            "Rate": 60,
            "Location": "School",
            "URL": ""
          },
          {
            "STATE": "",
            "Rate": 30,
            "Location": "Work",
            "URL": ""
          },
          {
            "STATE": "",
            "Rate": 40,
            "Location": "Vehicle",
            "URL": ""
          },
          {
            "STATE": "",
            "Rate": 55,
            "Location": "Home",
            "URL": ""
          },
          {
            "STATE": "",
            "Rate": 57,
            "Location": "Home",
            "URL": ""
          },
          {
            "STATE": "",
            "Rate": 60,
            "Location": "NA",
            "URL": ""
          },
          {
            "STATE": "",
            "Rate": 30,
            "Location": "Vehicle",
            "URL": ""
          },
          {
            "STATE": "",
            "Rate": 40,
            "Location": "Work",
            "URL": ""
          },
          {
            "STATE": "",
            "Rate": 55,
            "Location": "Home",
            "URL": ""
          },
          {
            "STATE": "",
            "Rate": 57,
            "Location": "School",
            "URL": ""
          },
          {
            "STATE": "",
            "Rate": 60,
            "Location": "School",
            "URL": ""
          },
          {
            "STATE": "",
            "Rate": 12,
            "Location": "Work",
            "URL": ""
          },
          {
            "STATE": "",
            "Rate": 65,
            "Location": "Vehicle",
            "URL": ""
          },
          {
            "STATE": "",
            "Rate": 55,
            "Location": "Home",
            "URL": ""
          },
          {
            "STATE": "",
            "Rate": 57,
            "Location": "Home",
            "URL": ""
          },
          {
            "STATE": "",
            "Rate": 60,
            "Location": "Home",
            "URL": ""
          },
          {
            "STATE": "",
            "Rate": 30,
            "Location": "Vehicle",
            "URL": ""
          },
          {
            "STATE": "",
            "Rate": 40,
            "Location": "Work",
            "URL": ""
          },
          {
            "STATE": "",
            "Rate": 55,
            "Location": "Home",
            "URL": ""
          },
          {
            "STATE": "",
            "Rate": 57,
            "Location": "School",
            "URL": ""
          },
          {
            "STATE": "",
            "Rate": 60,
            "Location": "School",
            "URL": ""
          },
          {
            "STATE": "",
            "Rate": 12,
            "Location": "Work",
            "URL": ""
          },
          {
            "STATE": "",
            "Rate": 40,
            "Location": "Vehicle",
            "URL": ""
          },
          {
            "STATE": "",
            "Rate": 55,
            "Location": "Home",
            "URL": ""
          },
          {
            "STATE": "",
            "Rate": 57,
            "Location": "Home",
            "URL": ""
          },
          {
            "STATE": "",
            "Rate": "60",
            "Location": "Home",
            "URL": ""
          },
          {
            "STATE": "",
            "Rate": 88,
            "Location": "Vehicle",
            "URL": ""
          },
          {
            "STATE": "",
            "Rate": 40,
            "Location": "Work",
            "URL": ""
          },
          {
            "STATE": "",
            "Rate": 55,
            "Location": "Home",
            "URL": ""
          },
          {
            "STATE": "",
            "Rate": 15,
            "Location": "School",
            "URL": ""
          },
          {
            "STATE": "",
            "Rate": 60,
            "Location": "School",
            "URL": ""
          },
          {
            "STATE": "",
            "Rate": 30,
            "Location": "Work",
            "URL": ""
          },
          {
            "STATE": "",
            "Rate": 40,
            "Location": "Vehicle",
            "URL": ""
          },
          {
            "STATE": "",
            "Rate": 55,
            "Location": "Home",
            "URL": ""
          },
          {
            "STATE": "",
            "Rate": 86,
            "Location": "Home",
            "URL": ""
          },
          {
            "STATE": "",
            "Rate": 60,
            "Location": "Home",
            "URL": ""
          },
          {
            "STATE": "",
            "Rate": 30,
            "Location": "Vehicle",
            "URL": ""
          },
          {
            "STATE": "",
            "Rate": 54,
            "Location": "Work",
            "URL": ""
          },
          {
            "STATE": "",
            "Rate": 40,
            "Location": "Home",
            "URL": ""
          },
          {
            "STATE": "",
            "Rate": 55,
            "Location": "School",
            "URL": ""
          },
          {
            "STATE": "",
            "Rate": 57,
            "Location": "School",
            "URL": ""
          },
          {
            "STATE": "",
            "Rate": 62,
            "Location": "Work",
            "URL": ""
          },
          {
            "STATE": "",
            "Rate": 25,
            "Location": "Vehicle",
            "URL": ""
          },
          {
            "STATE": "",
            "Rate": 43,
            "Location": "Vehicle",
            "URL": ""
          }
        ],
        "active": false
      },
      "exclusions": {
        "active": false,
        "keys": []
      },
      "palette": "qualitative-bold",
      "isPaletteReversed": false,
      "twoColor": {
        "palette": "monochrome-1",
        "isPaletteReversed": false
      },
      "labels": false,
      "dataFormat": {
        "commas": false,
        "prefix": "",
        "suffix": "",
        "abbreviated": false,
        "bottomSuffix": "",
        "bottomPrefix": "",
        "bottomAbbreviated": false
      },
      "confidenceKeys": {},
      "visual": {
        "border": true,
        "accent": true,
        "background": true,
        "verticalHoverLine": false,
        "horizontalHoverLine": false
      },
      "useLogScale": false,
      "filterBehavior": "Filter Change",
      "highlightedBarValues": [],
      "series": [
        {
          "dataKey": "Rate",
          "type": "Bar",
          "axis": "Left",
          "tooltip": true
        }
      ],
      "tooltips": {
        "opacity": 90,
        "singleSeries": false,
        "dateDisplayFormat": ""
      },
      "forestPlot": {
        "startAt": 0,
        "colors": {
          "line": "",
          "shape": ""
        },
        "lineOfNoEffect": {
          "show": true
        },
        "type": "",
        "pooledResult": {
          "diamondHeight": 5,
          "column": ""
        },
        "estimateField": "",
        "estimateRadius": "",
        "shape": "square",
        "rowHeight": 20,
        "description": {
          "show": true,
          "text": "description",
          "location": 0
        },
        "result": {
          "show": true,
          "text": "result",
          "location": 100
        },
        "radius": {
          "min": 2,
          "max": 10,
          "scalingColumn": ""
        },
        "regression": {
          "lower": 0,
          "upper": 0,
          "estimateField": 0
        },
        "leftWidthOffset": 0,
        "rightWidthOffset": 0,
        "showZeroLine": false,
        "leftLabel": "",
        "rightLabel": ""
      },
      "area": {
        "isStacked": false
      },
      "openModal": false,
      "uid": "chart1708703345997",
      "visualizationType": "Bar",
      "dataDescription": {
        "horizontal": false,
        "series": false
      },
      "formattedData": [
        {
          "STATE": "Overall",
          "Rate": "55",
          "Location": "Vehicle",
          "URL": "https://www.cdc.gov"
        },
        {
          "STATE": "Alabama",
          "Rate": 130,
          "Location": "Vehicle",
          "URL": "https://www.cdc.gov/"
        },
        {
          "STATE": "Alaska",
          "Rate": 40,
          "Location": "Work",
          "URL": "https://www.cdc.gov/"
        },
        {
          "STATE": "American Samoa",
          "Rate": 55,
          "Location": "Home",
          "URL": "https://www.cdc.gov/"
        },
        {
          "STATE": "Arizona",
          "Rate": 57,
          "Location": "School",
          "URL": "https://www.cdc.gov/"
        },
        {
          "STATE": "Arkansas",
          "Rate": 60,
          "Location": "School",
          "URL": "https://www.cdc.gov/"
        },
        {
          "STATE": "California",
          "Rate": 30,
          "Location": "Home",
          "URL": "https://www.cdc.gov/"
        },
        {
          "STATE": "Colorado",
          "Rate": 40,
          "Location": "Vehicle",
          "URL": "https://www.cdc.gov/"
        },
        {
          "STATE": "Connecticut",
          "Rate": 55,
          "Location": "Home",
          "URL": "https://www.cdc.gov/"
        },
        {
          "STATE": "Deleware",
          "Rate": "57",
          "Location": "Home",
          "URL": "https://www.cdc.gov/"
        },
        {
          "STATE": "DC",
          "Rate": 60,
          "Location": "Home",
          "URL": "https://www.cdc.gov/"
        },
        {
          "STATE": "Florida",
          "Rate": 30,
          "Location": "Work",
          "URL": "https://www.cdc.gov/"
        },
        {
          "STATE": "Georgia",
          "Rate": 40,
          "Location": "Work",
          "URL": "https://www.cdc.gov/"
        },
        {
          "STATE": "Guam",
          "Rate": 55,
          "Location": "Home",
          "URL": "https://www.cdc.gov/"
        },
        {
          "STATE": "Hawaii",
          "Rate": 57,
          "Location": "School",
          "URL": "https://www.cdc.gov/"
        },
        {
          "STATE": "Idaho",
          "Rate": 60,
          "Location": "School",
          "URL": "https://www.cdc.gov/"
        },
        {
          "STATE": "Illinois",
          "Rate": 30,
          "Location": "Work",
          "URL": "https://www.cdc.gov/"
        },
        {
          "STATE": "Indiana",
          "Rate": 40,
          "Location": "Vehicle",
          "URL": "https://www.cdc.gov/"
        },
        {
          "STATE": "Iowa",
          "Rate": 55,
          "Location": "Home",
          "URL": "https://www.cdc.gov/"
        },
        {
          "STATE": "Kansas",
          "Rate": 57,
          "Location": "Home",
          "URL": "https://www.cdc.gov/"
        },
        {
          "STATE": "Kentucky",
          "Rate": 60,
          "Location": "NA",
          "URL": "https://www.cdc.gov/"
        },
        {
          "STATE": "Louisiana",
          "Rate": 30,
          "Location": "Vehicle",
          "URL": "https://www.cdc.gov/"
        },
        {
          "STATE": "Maine",
          "Rate": 40,
          "Location": "Work",
          "URL": "https://www.cdc.gov/"
        },
        {
          "STATE": "Marshall Islands",
          "Rate": 55,
          "Location": "Home",
          "URL": "https://www.cdc.gov/"
        },
        {
          "STATE": "Maryland",
          "Rate": 57,
          "Location": "School",
          "URL": "https://www.cdc.gov/"
        },
        {
          "STATE": "Massachusetts",
          "Rate": 60,
          "Location": "School",
          "URL": "https://www.cdc.gov/"
        },
        {
          "STATE": "Michigan",
          "Rate": 12,
          "Location": "Work",
          "URL": "https://www.cdc.gov/"
        },
        {
          "STATE": "Micronesia",
          "Rate": 65,
          "Location": "Vehicle",
          "URL": "https://www.cdc.gov/"
        },
        {
          "STATE": "Minnesota",
          "Rate": 55,
          "Location": "Home",
          "URL": "https://www.cdc.gov/"
        },
        {
          "STATE": "Mississippi",
          "Rate": 57,
          "Location": "Home",
          "URL": "https://www.cdc.gov/"
        },
        {
          "STATE": "Montana",
          "Rate": 60,
          "Location": "Home",
          "URL": "https://www.cdc.gov/"
        },
        {
          "STATE": "Montana",
          "Rate": 30,
          "Location": "Vehicle",
          "URL": "https://www.cdc.gov/"
        },
        {
          "STATE": "Nebraska",
          "Rate": 40,
          "Location": "Work",
          "URL": "https://www.cdc.gov/"
        },
        {
          "STATE": "Nevada",
          "Rate": 55,
          "Location": "Home",
          "URL": "https://www.cdc.gov/"
        },
        {
          "STATE": "New Hampshire",
          "Rate": 57,
          "Location": "School",
          "URL": "https://www.cdc.gov/"
        },
        {
          "STATE": "New Jersey",
          "Rate": 60,
          "Location": "School",
          "URL": "https://www.cdc.gov/"
        },
        {
          "STATE": "New Mexico",
          "Rate": 12,
          "Location": "Work",
          "URL": "https://www.cdc.gov/"
        },
        {
          "STATE": "New York",
          "Rate": 40,
          "Location": "Vehicle",
          "URL": "https://www.cdc.gov/"
        },
        {
          "STATE": "North Carolina",
          "Rate": 55,
          "Location": "Home",
          "URL": "https://www.cdc.gov/"
        },
        {
          "STATE": "North Dakota",
          "Rate": 57,
          "Location": "Home",
          "URL": "https://www.cdc.gov/"
        },
        {
          "STATE": "Northern Mariana Islands",
          "Rate": "60",
          "Location": "Home",
          "URL": "https://www.cdc.gov/"
        },
        {
          "STATE": "Ohio",
          "Rate": 88,
          "Location": "Vehicle",
          "URL": "https://www.cdc.gov/"
        },
        {
          "STATE": "Oklahoma",
          "Rate": 40,
          "Location": "Work",
          "URL": "https://www.cdc.gov/"
        },
        {
          "STATE": "Oregon",
          "Rate": 55,
          "Location": "Home",
          "URL": "https://www.cdc.gov/"
        },
        {
          "STATE": "Palau",
          "Rate": 15,
          "Location": "School",
          "URL": "https://www.cdc.gov/"
        },
        {
          "STATE": "Pennsylvania",
          "Rate": 60,
          "Location": "School",
          "URL": "https://www.cdc.gov/"
        },
        {
          "STATE": "Puerto Rico",
          "Rate": 30,
          "Location": "Work",
          "URL": "https://www.cdc.gov/"
        },
        {
          "STATE": "Rhode Island",
          "Rate": 40,
          "Location": "Vehicle",
          "URL": "https://www.cdc.gov/"
        },
        {
          "STATE": "South Carolina",
          "Rate": 55,
          "Location": "Home",
          "URL": "https://www.cdc.gov/"
        },
        {
          "STATE": "South Dakota",
          "Rate": 86,
          "Location": "Home",
          "URL": "https://www.cdc.gov/"
        },
        {
          "STATE": "Tennessee",
          "Rate": 60,
          "Location": "Home",
          "URL": "https://www.cdc.gov/"
        },
        {
          "STATE": "Texas",
          "Rate": 30,
          "Location": "Vehicle",
          "URL": "https://www.cdc.gov/"
        },
        {
          "STATE": "Utah",
          "Rate": 54,
          "Location": "Work",
          "URL": "https://www.cdc.gov/"
        },
        {
          "STATE": "Vermont",
          "Rate": 40,
          "Location": "Home",
          "URL": "https://www.cdc.gov/"
        },
        {
          "STATE": "Virgin Islands",
          "Rate": 55,
          "Location": "School",
          "URL": "https://www.cdc.gov/"
        },
        {
          "STATE": "Virginia",
          "Rate": 57,
          "Location": "School",
          "URL": "https://www.cdc.gov/"
        },
        {
          "STATE": "Washington",
          "Rate": 62,
          "Location": "Work",
          "URL": "https://www.cdc.gov/"
        },
        {
          "STATE": "West Virginia",
          "Rate": 25,
          "Location": "Vehicle",
          "URL": "https://www.cdc.gov/"
        },
        {
          "STATE": "Wyoming",
          "Rate": 43,
          "Location": "Vehicle",
          "URL": "https://www.cdc.gov/"
        }
      ],
      "dataKey": "valid-data-map.csv",
      "data": [
        {
          "STATE": "Overall",
          "Rate": "55",
          "Location": "Vehicle",
          "URL": "https://www.cdc.gov"
        },
        {
          "STATE": "Alabama",
          "Rate": 130,
          "Location": "Vehicle",
          "URL": "https://www.cdc.gov/"
        },
        {
          "STATE": "Alaska",
          "Rate": 40,
          "Location": "Work",
          "URL": "https://www.cdc.gov/"
        },
        {
          "STATE": "American Samoa",
          "Rate": 55,
          "Location": "Home",
          "URL": "https://www.cdc.gov/"
        },
        {
          "STATE": "Arizona",
          "Rate": 57,
          "Location": "School",
          "URL": "https://www.cdc.gov/"
        },
        {
          "STATE": "Arkansas",
          "Rate": 60,
          "Location": "School",
          "URL": "https://www.cdc.gov/"
        },
        {
          "STATE": "California",
          "Rate": 30,
          "Location": "Home",
          "URL": "https://www.cdc.gov/"
        },
        {
          "STATE": "Colorado",
          "Rate": 40,
          "Location": "Vehicle",
          "URL": "https://www.cdc.gov/"
        },
        {
          "STATE": "Connecticut",
          "Rate": 55,
          "Location": "Home",
          "URL": "https://www.cdc.gov/"
        },
        {
          "STATE": "Deleware",
          "Rate": "57",
          "Location": "Home",
          "URL": "https://www.cdc.gov/"
        },
        {
          "STATE": "DC",
          "Rate": 60,
          "Location": "Home",
          "URL": "https://www.cdc.gov/"
        },
        {
          "STATE": "Florida",
          "Rate": 30,
          "Location": "Work",
          "URL": "https://www.cdc.gov/"
        },
        {
          "STATE": "Georgia",
          "Rate": 40,
          "Location": "Work",
          "URL": "https://www.cdc.gov/"
        },
        {
          "STATE": "Guam",
          "Rate": 55,
          "Location": "Home",
          "URL": "https://www.cdc.gov/"
        },
        {
          "STATE": "Hawaii",
          "Rate": 57,
          "Location": "School",
          "URL": "https://www.cdc.gov/"
        },
        {
          "STATE": "Idaho",
          "Rate": 60,
          "Location": "School",
          "URL": "https://www.cdc.gov/"
        },
        {
          "STATE": "Illinois",
          "Rate": 30,
          "Location": "Work",
          "URL": "https://www.cdc.gov/"
        },
        {
          "STATE": "Indiana",
          "Rate": 40,
          "Location": "Vehicle",
          "URL": "https://www.cdc.gov/"
        },
        {
          "STATE": "Iowa",
          "Rate": 55,
          "Location": "Home",
          "URL": "https://www.cdc.gov/"
        },
        {
          "STATE": "Kansas",
          "Rate": 57,
          "Location": "Home",
          "URL": "https://www.cdc.gov/"
        },
        {
          "STATE": "Kentucky",
          "Rate": 60,
          "Location": "NA",
          "URL": "https://www.cdc.gov/"
        },
        {
          "STATE": "Louisiana",
          "Rate": 30,
          "Location": "Vehicle",
          "URL": "https://www.cdc.gov/"
        },
        {
          "STATE": "Maine",
          "Rate": 40,
          "Location": "Work",
          "URL": "https://www.cdc.gov/"
        },
        {
          "STATE": "Marshall Islands",
          "Rate": 55,
          "Location": "Home",
          "URL": "https://www.cdc.gov/"
        },
        {
          "STATE": "Maryland",
          "Rate": 57,
          "Location": "School",
          "URL": "https://www.cdc.gov/"
        },
        {
          "STATE": "Massachusetts",
          "Rate": 60,
          "Location": "School",
          "URL": "https://www.cdc.gov/"
        },
        {
          "STATE": "Michigan",
          "Rate": 12,
          "Location": "Work",
          "URL": "https://www.cdc.gov/"
        },
        {
          "STATE": "Micronesia",
          "Rate": 65,
          "Location": "Vehicle",
          "URL": "https://www.cdc.gov/"
        },
        {
          "STATE": "Minnesota",
          "Rate": 55,
          "Location": "Home",
          "URL": "https://www.cdc.gov/"
        },
        {
          "STATE": "Mississippi",
          "Rate": 57,
          "Location": "Home",
          "URL": "https://www.cdc.gov/"
        },
        {
          "STATE": "Montana",
          "Rate": 60,
          "Location": "Home",
          "URL": "https://www.cdc.gov/"
        },
        {
          "STATE": "Montana",
          "Rate": 30,
          "Location": "Vehicle",
          "URL": "https://www.cdc.gov/"
        },
        {
          "STATE": "Nebraska",
          "Rate": 40,
          "Location": "Work",
          "URL": "https://www.cdc.gov/"
        },
        {
          "STATE": "Nevada",
          "Rate": 55,
          "Location": "Home",
          "URL": "https://www.cdc.gov/"
        },
        {
          "STATE": "New Hampshire",
          "Rate": 57,
          "Location": "School",
          "URL": "https://www.cdc.gov/"
        },
        {
          "STATE": "New Jersey",
          "Rate": 60,
          "Location": "School",
          "URL": "https://www.cdc.gov/"
        },
        {
          "STATE": "New Mexico",
          "Rate": 12,
          "Location": "Work",
          "URL": "https://www.cdc.gov/"
        },
        {
          "STATE": "New York",
          "Rate": 40,
          "Location": "Vehicle",
          "URL": "https://www.cdc.gov/"
        },
        {
          "STATE": "North Carolina",
          "Rate": 55,
          "Location": "Home",
          "URL": "https://www.cdc.gov/"
        },
        {
          "STATE": "North Dakota",
          "Rate": 57,
          "Location": "Home",
          "URL": "https://www.cdc.gov/"
        },
        {
          "STATE": "Northern Mariana Islands",
          "Rate": "60",
          "Location": "Home",
          "URL": "https://www.cdc.gov/"
        },
        {
          "STATE": "Ohio",
          "Rate": 88,
          "Location": "Vehicle",
          "URL": "https://www.cdc.gov/"
        },
        {
          "STATE": "Oklahoma",
          "Rate": 40,
          "Location": "Work",
          "URL": "https://www.cdc.gov/"
        },
        {
          "STATE": "Oregon",
          "Rate": 55,
          "Location": "Home",
          "URL": "https://www.cdc.gov/"
        },
        {
          "STATE": "Palau",
          "Rate": 15,
          "Location": "School",
          "URL": "https://www.cdc.gov/"
        },
        {
          "STATE": "Pennsylvania",
          "Rate": 60,
          "Location": "School",
          "URL": "https://www.cdc.gov/"
        },
        {
          "STATE": "Puerto Rico",
          "Rate": 30,
          "Location": "Work",
          "URL": "https://www.cdc.gov/"
        },
        {
          "STATE": "Rhode Island",
          "Rate": 40,
          "Location": "Vehicle",
          "URL": "https://www.cdc.gov/"
        },
        {
          "STATE": "South Carolina",
          "Rate": 55,
          "Location": "Home",
          "URL": "https://www.cdc.gov/"
        },
        {
          "STATE": "South Dakota",
          "Rate": 86,
          "Location": "Home",
          "URL": "https://www.cdc.gov/"
        },
        {
          "STATE": "Tennessee",
          "Rate": 60,
          "Location": "Home",
          "URL": "https://www.cdc.gov/"
        },
        {
          "STATE": "Texas",
          "Rate": 30,
          "Location": "Vehicle",
          "URL": "https://www.cdc.gov/"
        },
        {
          "STATE": "Utah",
          "Rate": 54,
          "Location": "Work",
          "URL": "https://www.cdc.gov/"
        },
        {
          "STATE": "Vermont",
          "Rate": 40,
          "Location": "Home",
          "URL": "https://www.cdc.gov/"
        },
        {
          "STATE": "Virgin Islands",
          "Rate": 55,
          "Location": "School",
          "URL": "https://www.cdc.gov/"
        },
        {
          "STATE": "Virginia",
          "Rate": 57,
          "Location": "School",
          "URL": "https://www.cdc.gov/"
        },
        {
          "STATE": "Washington",
          "Rate": 62,
          "Location": "Work",
          "URL": "https://www.cdc.gov/"
        },
        {
          "STATE": "West Virginia",
          "Rate": 25,
          "Location": "Vehicle",
          "URL": "https://www.cdc.gov/"
        },
        {
          "STATE": "Wyoming",
          "Rate": 43,
          "Location": "Vehicle",
          "URL": "https://www.cdc.gov/"
        }
      ],
      "editing": false,
      "originalFormattedData": [
        {
          "STATE": "Overall",
          "Rate": "55",
          "Location": "Vehicle",
          "URL": "https://www.cdc.gov"
        },
        {
          "STATE": "Alabama",
          "Rate": 130,
          "Location": "Vehicle",
          "URL": "https://www.cdc.gov/"
        },
        {
          "STATE": "Alaska",
          "Rate": 40,
          "Location": "Work",
          "URL": "https://www.cdc.gov/"
        },
        {
          "STATE": "American Samoa",
          "Rate": 55,
          "Location": "Home",
          "URL": "https://www.cdc.gov/"
        },
        {
          "STATE": "Arizona",
          "Rate": 57,
          "Location": "School",
          "URL": "https://www.cdc.gov/"
        },
        {
          "STATE": "Arkansas",
          "Rate": 60,
          "Location": "School",
          "URL": "https://www.cdc.gov/"
        },
        {
          "STATE": "California",
          "Rate": 30,
          "Location": "Home",
          "URL": "https://www.cdc.gov/"
        },
        {
          "STATE": "Colorado",
          "Rate": 40,
          "Location": "Vehicle",
          "URL": "https://www.cdc.gov/"
        },
        {
          "STATE": "Connecticut",
          "Rate": 55,
          "Location": "Home",
          "URL": "https://www.cdc.gov/"
        },
        {
          "STATE": "Deleware",
          "Rate": "57",
          "Location": "Home",
          "URL": "https://www.cdc.gov/"
        },
        {
          "STATE": "DC",
          "Rate": 60,
          "Location": "Home",
          "URL": "https://www.cdc.gov/"
        },
        {
          "STATE": "Florida",
          "Rate": 30,
          "Location": "Work",
          "URL": "https://www.cdc.gov/"
        },
        {
          "STATE": "Georgia",
          "Rate": 40,
          "Location": "Work",
          "URL": "https://www.cdc.gov/"
        },
        {
          "STATE": "Guam",
          "Rate": 55,
          "Location": "Home",
          "URL": "https://www.cdc.gov/"
        },
        {
          "STATE": "Hawaii",
          "Rate": 57,
          "Location": "School",
          "URL": "https://www.cdc.gov/"
        },
        {
          "STATE": "Idaho",
          "Rate": 60,
          "Location": "School",
          "URL": "https://www.cdc.gov/"
        },
        {
          "STATE": "Illinois",
          "Rate": 30,
          "Location": "Work",
          "URL": "https://www.cdc.gov/"
        },
        {
          "STATE": "Indiana",
          "Rate": 40,
          "Location": "Vehicle",
          "URL": "https://www.cdc.gov/"
        },
        {
          "STATE": "Iowa",
          "Rate": 55,
          "Location": "Home",
          "URL": "https://www.cdc.gov/"
        },
        {
          "STATE": "Kansas",
          "Rate": 57,
          "Location": "Home",
          "URL": "https://www.cdc.gov/"
        },
        {
          "STATE": "Kentucky",
          "Rate": 60,
          "Location": "NA",
          "URL": "https://www.cdc.gov/"
        },
        {
          "STATE": "Louisiana",
          "Rate": 30,
          "Location": "Vehicle",
          "URL": "https://www.cdc.gov/"
        },
        {
          "STATE": "Maine",
          "Rate": 40,
          "Location": "Work",
          "URL": "https://www.cdc.gov/"
        },
        {
          "STATE": "Marshall Islands",
          "Rate": 55,
          "Location": "Home",
          "URL": "https://www.cdc.gov/"
        },
        {
          "STATE": "Maryland",
          "Rate": 57,
          "Location": "School",
          "URL": "https://www.cdc.gov/"
        },
        {
          "STATE": "Massachusetts",
          "Rate": 60,
          "Location": "School",
          "URL": "https://www.cdc.gov/"
        },
        {
          "STATE": "Michigan",
          "Rate": 12,
          "Location": "Work",
          "URL": "https://www.cdc.gov/"
        },
        {
          "STATE": "Micronesia",
          "Rate": 65,
          "Location": "Vehicle",
          "URL": "https://www.cdc.gov/"
        },
        {
          "STATE": "Minnesota",
          "Rate": 55,
          "Location": "Home",
          "URL": "https://www.cdc.gov/"
        },
        {
          "STATE": "Mississippi",
          "Rate": 57,
          "Location": "Home",
          "URL": "https://www.cdc.gov/"
        },
        {
          "STATE": "Montana",
          "Rate": 60,
          "Location": "Home",
          "URL": "https://www.cdc.gov/"
        },
        {
          "STATE": "Montana",
          "Rate": 30,
          "Location": "Vehicle",
          "URL": "https://www.cdc.gov/"
        },
        {
          "STATE": "Nebraska",
          "Rate": 40,
          "Location": "Work",
          "URL": "https://www.cdc.gov/"
        },
        {
          "STATE": "Nevada",
          "Rate": 55,
          "Location": "Home",
          "URL": "https://www.cdc.gov/"
        },
        {
          "STATE": "New Hampshire",
          "Rate": 57,
          "Location": "School",
          "URL": "https://www.cdc.gov/"
        },
        {
          "STATE": "New Jersey",
          "Rate": 60,
          "Location": "School",
          "URL": "https://www.cdc.gov/"
        },
        {
          "STATE": "New Mexico",
          "Rate": 12,
          "Location": "Work",
          "URL": "https://www.cdc.gov/"
        },
        {
          "STATE": "New York",
          "Rate": 40,
          "Location": "Vehicle",
          "URL": "https://www.cdc.gov/"
        },
        {
          "STATE": "North Carolina",
          "Rate": 55,
          "Location": "Home",
          "URL": "https://www.cdc.gov/"
        },
        {
          "STATE": "North Dakota",
          "Rate": 57,
          "Location": "Home",
          "URL": "https://www.cdc.gov/"
        },
        {
          "STATE": "Northern Mariana Islands",
          "Rate": "60",
          "Location": "Home",
          "URL": "https://www.cdc.gov/"
        },
        {
          "STATE": "Ohio",
          "Rate": 88,
          "Location": "Vehicle",
          "URL": "https://www.cdc.gov/"
        },
        {
          "STATE": "Oklahoma",
          "Rate": 40,
          "Location": "Work",
          "URL": "https://www.cdc.gov/"
        },
        {
          "STATE": "Oregon",
          "Rate": 55,
          "Location": "Home",
          "URL": "https://www.cdc.gov/"
        },
        {
          "STATE": "Palau",
          "Rate": 15,
          "Location": "School",
          "URL": "https://www.cdc.gov/"
        },
        {
          "STATE": "Pennsylvania",
          "Rate": 60,
          "Location": "School",
          "URL": "https://www.cdc.gov/"
        },
        {
          "STATE": "Puerto Rico",
          "Rate": 30,
          "Location": "Work",
          "URL": "https://www.cdc.gov/"
        },
        {
          "STATE": "Rhode Island",
          "Rate": 40,
          "Location": "Vehicle",
          "URL": "https://www.cdc.gov/"
        },
        {
          "STATE": "South Carolina",
          "Rate": 55,
          "Location": "Home",
          "URL": "https://www.cdc.gov/"
        },
        {
          "STATE": "South Dakota",
          "Rate": 86,
          "Location": "Home",
          "URL": "https://www.cdc.gov/"
        },
        {
          "STATE": "Tennessee",
          "Rate": 60,
          "Location": "Home",
          "URL": "https://www.cdc.gov/"
        },
        {
          "STATE": "Texas",
          "Rate": 30,
          "Location": "Vehicle",
          "URL": "https://www.cdc.gov/"
        },
        {
          "STATE": "Utah",
          "Rate": 54,
          "Location": "Work",
          "URL": "https://www.cdc.gov/"
        },
        {
          "STATE": "Vermont",
          "Rate": 40,
          "Location": "Home",
          "URL": "https://www.cdc.gov/"
        },
        {
          "STATE": "Virgin Islands",
          "Rate": 55,
          "Location": "School",
          "URL": "https://www.cdc.gov/"
        },
        {
          "STATE": "Virginia",
          "Rate": 57,
          "Location": "School",
          "URL": "https://www.cdc.gov/"
        },
        {
          "STATE": "Washington",
          "Rate": 62,
          "Location": "Work",
          "URL": "https://www.cdc.gov/"
        },
        {
          "STATE": "West Virginia",
          "Rate": 25,
          "Location": "Vehicle",
          "URL": "https://www.cdc.gov/"
        },
        {
          "STATE": "Wyoming",
          "Rate": 43,
          "Location": "Vehicle",
          "URL": "https://www.cdc.gov/"
        }
      ],
      "validated": 4.23,
      "dynamicMarginTop": 0
    }
  },
  "table": {
    "label": "Data Table",
    "show": false,
    "showDownloadUrl": false,
    "showVertical": true
  },
  "datasets": {
    "valid-data-map.csv": {
      "data": [
        {
          "STATE": "Overall",
          "Rate": "55",
          "Location": "Vehicle",
          "URL": "https://www.cdc.gov"
        },
        {
          "STATE": "Alabama",
          "Rate": 130,
          "Location": "Vehicle",
          "URL": "https://www.cdc.gov/"
        },
        {
          "STATE": "Alaska",
          "Rate": 40,
          "Location": "Work",
          "URL": "https://www.cdc.gov/"
        },
        {
          "STATE": "American Samoa",
          "Rate": 55,
          "Location": "Home",
          "URL": "https://www.cdc.gov/"
        },
        {
          "STATE": "Arizona",
          "Rate": 57,
          "Location": "School",
          "URL": "https://www.cdc.gov/"
        },
        {
          "STATE": "Arkansas",
          "Rate": 60,
          "Location": "School",
          "URL": "https://www.cdc.gov/"
        },
        {
          "STATE": "California",
          "Rate": 30,
          "Location": "Home",
          "URL": "https://www.cdc.gov/"
        },
        {
          "STATE": "Colorado",
          "Rate": 40,
          "Location": "Vehicle",
          "URL": "https://www.cdc.gov/"
        },
        {
          "STATE": "Connecticut",
          "Rate": 55,
          "Location": "Home",
          "URL": "https://www.cdc.gov/"
        },
        {
          "STATE": "Deleware",
          "Rate": "57",
          "Location": "Home",
          "URL": "https://www.cdc.gov/"
        },
        {
          "STATE": "DC",
          "Rate": 60,
          "Location": "Home",
          "URL": "https://www.cdc.gov/"
        },
        {
          "STATE": "Florida",
          "Rate": 30,
          "Location": "Work",
          "URL": "https://www.cdc.gov/"
        },
        {
          "STATE": "Georgia",
          "Rate": 40,
          "Location": "Work",
          "URL": "https://www.cdc.gov/"
        },
        {
          "STATE": "Guam",
          "Rate": 55,
          "Location": "Home",
          "URL": "https://www.cdc.gov/"
        },
        {
          "STATE": "Hawaii",
          "Rate": 57,
          "Location": "School",
          "URL": "https://www.cdc.gov/"
        },
        {
          "STATE": "Idaho",
          "Rate": 60,
          "Location": "School",
          "URL": "https://www.cdc.gov/"
        },
        {
          "STATE": "Illinois",
          "Rate": 30,
          "Location": "Work",
          "URL": "https://www.cdc.gov/"
        },
        {
          "STATE": "Indiana",
          "Rate": 40,
          "Location": "Vehicle",
          "URL": "https://www.cdc.gov/"
        },
        {
          "STATE": "Iowa",
          "Rate": 55,
          "Location": "Home",
          "URL": "https://www.cdc.gov/"
        },
        {
          "STATE": "Kansas",
          "Rate": 57,
          "Location": "Home",
          "URL": "https://www.cdc.gov/"
        },
        {
          "STATE": "Kentucky",
          "Rate": 60,
          "Location": "NA",
          "URL": "https://www.cdc.gov/"
        },
        {
          "STATE": "Louisiana",
          "Rate": 30,
          "Location": "Vehicle",
          "URL": "https://www.cdc.gov/"
        },
        {
          "STATE": "Maine",
          "Rate": 40,
          "Location": "Work",
          "URL": "https://www.cdc.gov/"
        },
        {
          "STATE": "Marshall Islands",
          "Rate": 55,
          "Location": "Home",
          "URL": "https://www.cdc.gov/"
        },
        {
          "STATE": "Maryland",
          "Rate": 57,
          "Location": "School",
          "URL": "https://www.cdc.gov/"
        },
        {
          "STATE": "Massachusetts",
          "Rate": 60,
          "Location": "School",
          "URL": "https://www.cdc.gov/"
        },
        {
          "STATE": "Michigan",
          "Rate": 12,
          "Location": "Work",
          "URL": "https://www.cdc.gov/"
        },
        {
          "STATE": "Micronesia",
          "Rate": 65,
          "Location": "Vehicle",
          "URL": "https://www.cdc.gov/"
        },
        {
          "STATE": "Minnesota",
          "Rate": 55,
          "Location": "Home",
          "URL": "https://www.cdc.gov/"
        },
        {
          "STATE": "Mississippi",
          "Rate": 57,
          "Location": "Home",
          "URL": "https://www.cdc.gov/"
        },
        {
          "STATE": "Montana",
          "Rate": 60,
          "Location": "Home",
          "URL": "https://www.cdc.gov/"
        },
        {
          "STATE": "Montana",
          "Rate": 30,
          "Location": "Vehicle",
          "URL": "https://www.cdc.gov/"
        },
        {
          "STATE": "Nebraska",
          "Rate": 40,
          "Location": "Work",
          "URL": "https://www.cdc.gov/"
        },
        {
          "STATE": "Nevada",
          "Rate": 55,
          "Location": "Home",
          "URL": "https://www.cdc.gov/"
        },
        {
          "STATE": "New Hampshire",
          "Rate": 57,
          "Location": "School",
          "URL": "https://www.cdc.gov/"
        },
        {
          "STATE": "New Jersey",
          "Rate": 60,
          "Location": "School",
          "URL": "https://www.cdc.gov/"
        },
        {
          "STATE": "New Mexico",
          "Rate": 12,
          "Location": "Work",
          "URL": "https://www.cdc.gov/"
        },
        {
          "STATE": "New York",
          "Rate": 40,
          "Location": "Vehicle",
          "URL": "https://www.cdc.gov/"
        },
        {
          "STATE": "North Carolina",
          "Rate": 55,
          "Location": "Home",
          "URL": "https://www.cdc.gov/"
        },
        {
          "STATE": "North Dakota",
          "Rate": 57,
          "Location": "Home",
          "URL": "https://www.cdc.gov/"
        },
        {
          "STATE": "Northern Mariana Islands",
          "Rate": "60",
          "Location": "Home",
          "URL": "https://www.cdc.gov/"
        },
        {
          "STATE": "Ohio",
          "Rate": 88,
          "Location": "Vehicle",
          "URL": "https://www.cdc.gov/"
        },
        {
          "STATE": "Oklahoma",
          "Rate": 40,
          "Location": "Work",
          "URL": "https://www.cdc.gov/"
        },
        {
          "STATE": "Oregon",
          "Rate": 55,
          "Location": "Home",
          "URL": "https://www.cdc.gov/"
        },
        {
          "STATE": "Palau",
          "Rate": 15,
          "Location": "School",
          "URL": "https://www.cdc.gov/"
        },
        {
          "STATE": "Pennsylvania",
          "Rate": 60,
          "Location": "School",
          "URL": "https://www.cdc.gov/"
        },
        {
          "STATE": "Puerto Rico",
          "Rate": 30,
          "Location": "Work",
          "URL": "https://www.cdc.gov/"
        },
        {
          "STATE": "Rhode Island",
          "Rate": 40,
          "Location": "Vehicle",
          "URL": "https://www.cdc.gov/"
        },
        {
          "STATE": "South Carolina",
          "Rate": 55,
          "Location": "Home",
          "URL": "https://www.cdc.gov/"
        },
        {
          "STATE": "South Dakota",
          "Rate": 86,
          "Location": "Home",
          "URL": "https://www.cdc.gov/"
        },
        {
          "STATE": "Tennessee",
          "Rate": 60,
          "Location": "Home",
          "URL": "https://www.cdc.gov/"
        },
        {
          "STATE": "Texas",
          "Rate": 30,
          "Location": "Vehicle",
          "URL": "https://www.cdc.gov/"
        },
        {
          "STATE": "Utah",
          "Rate": 54,
          "Location": "Work",
          "URL": "https://www.cdc.gov/"
        },
        {
          "STATE": "Vermont",
          "Rate": 40,
          "Location": "Home",
          "URL": "https://www.cdc.gov/"
        },
        {
          "STATE": "Virgin Islands",
          "Rate": 55,
          "Location": "School",
          "URL": "https://www.cdc.gov/"
        },
        {
          "STATE": "Virginia",
          "Rate": 57,
          "Location": "School",
          "URL": "https://www.cdc.gov/"
        },
        {
          "STATE": "Washington",
          "Rate": 62,
          "Location": "Work",
          "URL": "https://www.cdc.gov/"
        },
        {
          "STATE": "West Virginia",
          "Rate": 25,
          "Location": "Vehicle",
          "URL": "https://www.cdc.gov/"
        },
        {
          "STATE": "Wyoming",
          "Rate": 43,
          "Location": "Vehicle",
          "URL": "https://www.cdc.gov/"
        }
      ],
      "dataFileSize": 2433,
      "dataFileName": "valid-data-map.csv",
      "dataFileSourceType": "file",
      "dataFileFormat": "CSV",
      "preview": true
    }
  },
  "data": [],
  "type": "dashboard",
  "dataUrl": "",
  "dataFileName": "",
  "dataFileSourceType": "",
  "dataDescription": [],
  "formattedData": [],
  "runtime": {}
}
