{
  "annotations": [
    {
      "text": "Utah",
      "snapToNearestPoint": false,
      "fontSize": 16,
      "show": {
        "desktop": true,
        "tablet": true,
        "mobile": true
      },
      "markerType": "arrow",
      "connectorType": "line",
      "colors": {
        "label": "black",
        "connector": "black",
        "marker": "black"
      },
      "selected": true,
      "anchor": {
        "vertical": false,
        "horizontal": false
      },
      "connectionType": "line",
      "marker": "arrow",
      "edit": {
        "subject": true,
        "label": true
      },
      "seriesKey": "none",
      "x": 243.4174346923828,
      "y": 206.672119140625,
      "xKey": null,
      "yKey": null,
      "dx": 54.76988220214844,
      "dy": -33.62369155883789,
      "opacity": 100,
      "savedDimensions": [
        638.02,
        567.59375
      ],
      "connectionLocation": "auto"
    }
  ],
  "general": {
    "geoType": "us",
    "type": "data",
    "geoBorderColor": "darkGray",
    "headerColor": "theme-blue",
    "title": "",
    "showTitle": true,
    "showSidebar": true,
    "showDownloadButton": true,
    "showDownloadMediaButton": false,
    "displayAsHex": false,
    "displayStateLabels": false,
    "territoriesLabel": "Territories",
    "territoriesAlwaysShow": false,
    "language": "en",
    "geoLabelOverride": "",
    "hasRegions": false,
    "fullBorder": false,
    "convertFipsCodes": true,
    "palette": {
      "isReversed": false
    },
    "allowMapZoom": true,
    "hideGeoColumnInTooltip": false,
    "hidePrimaryColumnInTooltip": false,
    "statePicked": {
      "fipsCode": "01",
      "stateName": "Alabama"
    },
    "expandDataTable": false
  },
  "type": "map",
  "color": "pinkpurple",
  "columns": {
    "geo": {
      "name": "STATE",
      "label": "Location",
      "tooltip": false,
      "dataTable": true
    },
    "primary": {
      "dataTable": true,
      "tooltip": true,
      "prefix": "",
      "suffix": "",
      "name": "Rate",
      "label": ""
    },
    "navigate": {
      "name": ""
    },
    "latitude": {
      "name": ""
    },
    "longitude": {
      "name": ""
    }
  },
  "legend": {
    "descriptions": {},
    "specialClasses": [
      {
        "key": "Location",
        "value": "NA"
      }
    ],
    "unified": false,
    "singleColumn": false,
    "singleRow": false,
    "verticalSorted": false,
    "showSpecialClassesLast": true,
    "dynamicDescription": false,
    "type": "equalnumber",
    "numberOfItems": 3,
    "position": "side",
    "title": "Legend"
  },
  "filters": [],
  "table": {
    "wrapColumns": false,
    "label": "Data Table",
    "expanded": false,
    "limitHeight": false,
    "height": "",
    "caption": "",
    "showDownloadUrl": false,
    "showDataTableLink": true,
    "showFullGeoNameInCSV": false,
    "forceDisplay": true,
    "download": true,
    "indexLabel": ""
  },
  "tooltips": {
    "appearanceType": "hover",
    "linkLabel": "Learn More",
    "capitalizeLabels": true,
    "opacity": 90
  },
  "runtime": {
    "editorErrorMessage": []
  },
  "visual": {
    "minBubbleSize": 1,
    "maxBubbleSize": 20,
    "extraBubbleBorder": false,
    "cityStyle": "circle",
    "geoCodeCircleSize": 2,
    "showBubbleZeros": false,
    "cityStyleLabel": "",
    "additionalCityStyles": []
  },
  "mapPosition": {
    "coordinates": [
      0,
      30
    ],
    "zoom": 1
  },
  "map": {
    "layers": [],
    "patterns": []
  },
  "hexMap": {
    "type": "",
    "shapeGroups": [
      {
        "legendTitle": "",
        "legendDescription": "",
        "items": [
          {
            "key": "",
            "shape": "Arrow up",
            "column": "",
            "operator": "=",
            "value": ""
          }
        ]
      }
    ]
  },
  "filterBehavior": "Filter Change",
  "datasets": {},
  "data": [
    {
      "STATE": "Overall",
      "Rate": "55",
      "Location": "Vehicle",
      "URL": "https://www.cdc.gov"
    },
    {
      "STATE": "Alabama",
      "Rate": 130,
      "Location": "Vehicle",
      "URL": "https://www.cdc.gov/"
    },
    {
      "STATE": "Alaska",
      "Rate": 40,
      "Location": "Work",
      "URL": "https://www.cdc.gov/"
    },
    {
      "STATE": "American Samoa",
      "Rate": 55,
      "Location": "Home",
      "URL": "https://www.cdc.gov/"
    },
    {
      "STATE": "Arizona",
      "Rate": 57,
      "Location": "School",
      "URL": "https://www.cdc.gov/"
    },
    {
      "STATE": "Arkansas",
      "Rate": 60,
      "Location": "School",
      "URL": "https://www.cdc.gov/"
    },
    {
      "STATE": "California",
      "Rate": 30,
      "Location": "Home",
      "URL": "https://www.cdc.gov/"
    },
    {
      "STATE": "Colorado",
      "Rate": 40,
      "Location": "Vehicle",
      "URL": "https://www.cdc.gov/"
    },
    {
      "STATE": "Connecticut",
      "Rate": 55,
      "Location": "Home",
      "URL": "https://www.cdc.gov/"
    },
    {
      "STATE": "Deleware",
      "Rate": "57",
      "Location": "Home",
      "URL": "https://www.cdc.gov/"
    },
    {
      "STATE": "DC",
      "Rate": 60,
      "Location": "Home",
      "URL": "https://www.cdc.gov/"
    },
    {
      "STATE": "Florida",
      "Rate": 30,
      "Location": "Work",
      "URL": "https://www.cdc.gov/"
    },
    {
      "STATE": "Georgia",
      "Rate": 40,
      "Location": "Work",
      "URL": "https://www.cdc.gov/"
    },
    {
      "STATE": "Guam",
      "Rate": 55,
      "Location": "Home",
      "URL": "https://www.cdc.gov/"
    },
    {
      "STATE": "Hawaii",
      "Rate": 57,
      "Location": "School",
      "URL": "https://www.cdc.gov/"
    },
    {
      "STATE": "Idaho",
      "Rate": 60,
      "Location": "School",
      "URL": "https://www.cdc.gov/"
    },
    {
      "STATE": "Illinois",
      "Rate": 30,
      "Location": "Work",
      "URL": "https://www.cdc.gov/"
    },
    {
      "STATE": "Indiana",
      "Rate": 40,
      "Location": "Vehicle",
      "URL": "https://www.cdc.gov/"
    },
    {
      "STATE": "Iowa",
      "Rate": 55,
      "Location": "Home",
      "URL": "https://www.cdc.gov/"
    },
    {
      "STATE": "Kansas",
      "Rate": 57,
      "Location": "Home",
      "URL": "https://www.cdc.gov/"
    },
    {
      "STATE": "Kentucky",
      "Rate": 60,
      "Location": "NA",
      "URL": "https://www.cdc.gov/"
    },
    {
      "STATE": "Louisiana",
      "Rate": 30,
      "Location": "Vehicle",
      "URL": "https://www.cdc.gov/"
    },
    {
      "STATE": "Maine",
      "Rate": 40,
      "Location": "Work",
      "URL": "https://www.cdc.gov/"
    },
    {
      "STATE": "Marshall Islands",
      "Rate": 55,
      "Location": "Home",
      "URL": "https://www.cdc.gov/"
    },
    {
      "STATE": "Maryland",
      "Rate": 57,
      "Location": "School",
      "URL": "https://www.cdc.gov/"
    },
    {
      "STATE": "Massachusetts",
      "Rate": 60,
      "Location": "School",
      "URL": "https://www.cdc.gov/"
    },
    {
      "STATE": "Michigan",
      "Rate": 12,
      "Location": "Work",
      "URL": "https://www.cdc.gov/"
    },
    {
      "STATE": "Micronesia",
      "Rate": 65,
      "Location": "Vehicle",
      "URL": "https://www.cdc.gov/"
    },
    {
      "STATE": "Minnesota",
      "Rate": 55,
      "Location": "Home",
      "URL": "https://www.cdc.gov/"
    },
    {
      "STATE": "Mississippi",
      "Rate": 57,
      "Location": "Home",
      "URL": "https://www.cdc.gov/"
    },
    {
      "STATE": "Montana",
      "Rate": 60,
      "Location": "Home",
      "URL": "https://www.cdc.gov/"
    },
    {
      "STATE": "Montana",
      "Rate": 30,
      "Location": "Vehicle",
      "URL": "https://www.cdc.gov/"
    },
    {
      "STATE": "Nebraska",
      "Rate": 40,
      "Location": "Work",
      "URL": "https://www.cdc.gov/"
    },
    {
      "STATE": "Nevada",
      "Rate": 55,
      "Location": "Home",
      "URL": "https://www.cdc.gov/"
    },
    {
      "STATE": "New Hampshire",
      "Rate": 57,
      "Location": "School",
      "URL": "https://www.cdc.gov/"
    },
    {
      "STATE": "New Jersey",
      "Rate": 60,
      "Location": "School",
      "URL": "https://www.cdc.gov/"
    },
    {
      "STATE": "New Mexico",
      "Rate": 12,
      "Location": "Work",
      "URL": "https://www.cdc.gov/"
    },
    {
      "STATE": "New York",
      "Rate": 40,
      "Location": "Vehicle",
      "URL": "https://www.cdc.gov/"
    },
    {
      "STATE": "North Carolina",
      "Rate": 55,
      "Location": "Home",
      "URL": "https://www.cdc.gov/"
    },
    {
      "STATE": "North Dakota",
      "Rate": 57,
      "Location": "Home",
      "URL": "https://www.cdc.gov/"
    },
    {
      "STATE": "Northern Mariana Islands",
      "Rate": "60",
      "Location": "Home",
      "URL": "https://www.cdc.gov/"
    },
    {
      "STATE": "Ohio",
      "Rate": 88,
      "Location": "Vehicle",
      "URL": "https://www.cdc.gov/"
    },
    {
      "STATE": "Oklahoma",
      "Rate": 40,
      "Location": "Work",
      "URL": "https://www.cdc.gov/"
    },
    {
      "STATE": "Oregon",
      "Rate": 55,
      "Location": "Home",
      "URL": "https://www.cdc.gov/"
    },
    {
      "STATE": "Palau",
      "Rate": 15,
      "Location": "School",
      "URL": "https://www.cdc.gov/"
    },
    {
      "STATE": "Pennsylvania",
      "Rate": 60,
      "Location": "School",
      "URL": "https://www.cdc.gov/"
    },
    {
      "STATE": "Puerto Rico",
      "Rate": 30,
      "Location": "Work",
      "URL": "https://www.cdc.gov/"
    },
    {
      "STATE": "Rhode Island",
      "Rate": 40,
      "Location": "Vehicle",
      "URL": "https://www.cdc.gov/"
    },
    {
      "STATE": "South Carolina",
      "Rate": 55,
      "Location": "Home",
      "URL": "https://www.cdc.gov/"
    },
    {
      "STATE": "South Dakota",
      "Rate": 86,
      "Location": "Home",
      "URL": "https://www.cdc.gov/"
    },
    {
      "STATE": "Tennessee",
      "Rate": 60,
      "Location": "Home",
      "URL": "https://www.cdc.gov/"
    },
    {
      "STATE": "Texas",
      "Rate": 30,
      "Location": "Vehicle",
      "URL": "https://www.cdc.gov/"
    },
    {
      "STATE": "Utah",
      "Rate": 54,
      "Location": "Work",
      "URL": "https://www.cdc.gov/"
    },
    {
      "STATE": "Vermont",
      "Rate": 40,
      "Location": "Home",
      "URL": "https://www.cdc.gov/"
    },
    {
      "STATE": "Virgin Islands",
      "Rate": 55,
      "Location": "School",
      "URL": "https://www.cdc.gov/"
    },
    {
      "STATE": "Virginia",
      "Rate": 57,
      "Location": "School",
      "URL": "https://www.cdc.gov/"
    },
    {
      "STATE": "Washington",
      "Rate": 62,
      "Location": "Work",
      "URL": "https://www.cdc.gov/"
    },
    {
      "STATE": "West Virginia",
      "Rate": 25,
      "Location": "Vehicle",
      "URL": "https://www.cdc.gov/"
    },
    {
      "STATE": "Wyoming",
      "Rate": 43,
      "Location": "Vehicle",
      "URL": "https://www.cdc.gov/"
    }
  ],
  "dataFileName": "valid-data-map.csv",
  "dataFileSourceType": "file",
  "dataDescription": {
    "horizontal": false,
    "series": false
  },
  "validated": 4.23,
  "version": "4.24.4",
  "showEditorPanel": true
}
